Unnamed: 0,name,localidad,latitude,longitude,type,color
0,C.C. Iserra 100,BARRIOS UNIDOS,4.688481,-74.063971,Paradas SITP,#FDF202
1,Br. Rincón del Chicó,USAQUEN,4.684091,-74.045914,Paradas SITP,#FDF202
2,Gimnasio Iragua,SUBA,4.759867,-74.06635,Paradas SITP,#FDF202
3,Br. Julio Flórez,SUBA,4.689504,-74.071439,Paradas SITP,#FDF202
4,Avenida Calle 80,BARRIOS UNIDOS,4.682626,-74.080392,Paradas SITP,#FDF202
5,Br. Pablo VI Norte,TEUSAQUILLO,4.651927,-74.084384,Paradas SITP,#FDF202
6,Avenida Calle 13,KENNEDY,4.63811,-74.117724,Paradas SITP,#FDF202
7,Br. San Francisco,PUENTE ARANDA,4.625491,-74.108012,Paradas SITP,#FDF202
8,Br. Hipotecho Sur,KENNEDY,4.619447,-74.126021,Paradas SITP,#FDF202
9,Br. Alquería La Fragua II,KENNEDY,4.598327,-74.136273,Paradas SITP,#FDF202
10,Pq. Lagunetas,TUNJUELITO,4.589934,-74.145558,Paradas SITP,#FDF202
11,Br. Arborizadora Baja,TUNJUELITO,4.577435,-74.141362,Paradas SITP,#FDF202
12,Funeraria Claret,RAFAEL URIBE URIBE,4.573561,-74.123687,Paradas SITP,#FDF202
13,Avenida 1 de Mayo,SAN CRISTOBAL,4.571172,-74.089465,Paradas SITP,#FDF202
14,AC 80,BARRIOS UNIDOS,4.682185,-74.08094,Paradas SITP,#FDF202
15,Br. San Felipe,BARRIOS UNIDOS,4.662386,-74.066056,Paradas SITP,#FDF202
16,Br. Barrancas Perlas del Norte,USAQUEN,4.728632,-74.026476,Paradas SITP,#FDF202
17,Br. Iragua,BOSA,4.759618,-74.066025,Paradas SITP,#FDF202
18,Niza Norte,SUBA,4.711234,-74.078999,Paradas SITP,#FDF202
19,Br. Bonanza,ENGATIVA,4.690327,-74.092653,Paradas SITP,#FDF202
20,Br. Nicolás de Federmann,TEUSAQUILLO,4.650901,-74.084514,Paradas SITP,#FDF202
21,Br. Granjas de Techo,FONTIBON,4.64112,-74.114708,Paradas SITP,#FDF202
22,CC Carrera,PUENTE ARANDA,4.626018,-74.107916,Paradas SITP,#FDF202
23,Br. Milenta,PUENTE ARANDA,4.613974,-74.127369,Paradas SITP,#FDF202
24,Br. Alquería,PUENTE ARANDA,4.59785,-74.136184,Paradas SITP,#FDF202
25,Br. San Benito,CIUDAD BOLIVAR,4.562784,-74.138585,Paradas SITP,#FDF202
26, San José Sur,RAFAEL URIBE URIBE,4.569651,-74.125091,Paradas SITP,#FDF202
27,Carrera 2,SAN CRISTOBAL,4.5706,-74.088913,Paradas SITP,#FDF202
28,Granjas de Techo,FONTIBON,4.641693,-74.114111,Paradas SITP,#FDF202
29,Br. Meissen,CIUDAD BOLIVAR,4.560431,-74.138964,Paradas SITP,#FDF202
30,Pq. Alcázares,BARRIOS UNIDOS,4.664149,-74.068797,Paradas SITP,#FDF202
31,Br. El Plan,SUBA,4.736205,-74.066207,Paradas SITP,#FDF202
32,Pq. Alto de los Lagartos,SUBA,4.709208,-74.080583,Paradas SITP,#FDF202
33,Br. 12 de Octubre,BARRIOS UNIDOS,4.669139,-74.075071,Paradas SITP,#FDF202
34,Br. Nicolás de Federmán,TEUSAQUILLO,4.648628,-74.085403,Paradas SITP,#FDF202
35,Fiscalía General de la Nación,TEUSAQUILLO,4.637315,-74.098166,Paradas SITP,#FDF202
36,Ciudad Techo II,KENNEDY,4.635262,-74.154185,Paradas SITP,#FDF202
37,Urb. Santa Rita,PUENTE ARANDA,4.600068,-74.123197,Paradas SITP,#FDF202
38,Colmotores,TUNJUELITO,4.586349,-74.14443,Paradas SITP,#FDF202
39,Br. Marco Fidel Suárez,RAFAEL URIBE URIBE,4.563592,-74.124864,Paradas SITP,#FDF202
40,Br. San Cristóbal Sur,SAN CRISTOBAL,4.571268,-74.080555,Paradas SITP,#FDF202
41,Br. Los Alcázares Norte,BARRIOS UNIDOS,4.665533,-74.070291,Paradas SITP,#FDF202
42,Escuela de Carabineros,SUBA,4.734139,-74.06715,Paradas SITP,#FDF202
43,Pq. Alto de Los Lagartos (Club Choquenzá),SUBA,4.709207,-74.080304,Paradas SITP,#FDF202
44,Br. La Soledad Norte,ENGATIVA,4.695899,-74.105253,Paradas SITP,#FDF202
45,Pq. La Esmeralda,TEUSAQUILLO,4.645377,-74.08703,Paradas SITP,#FDF202
46,Br. Ortezal,TEUSAQUILLO,4.636285,-74.099718,Paradas SITP,#FDF202
47,Br. San Rafael Industrial,PUENTE ARANDA,4.624267,-74.109293,Paradas SITP,#FDF202
48,Corabastos,KENNEDY,4.634914,-74.15426,Paradas SITP,#FDF202
49,Pq. Santa Rita I Sector,PUENTE ARANDA,4.600145,-74.123388,Paradas SITP,#FDF202
50,Br. Inglés,RAFAEL URIBE URIBE,4.587678,-74.126207,Paradas SITP,#FDF202
51,Br. Lucero Alto,CIUDAD BOLIVAR,4.558725,-74.139154,Paradas SITP,#FDF202
52,Br. El Playón,RAFAEL URIBE URIBE,4.559238,-74.12324,Paradas SITP,#FDF202
53, Alcázares,BARRIOS UNIDOS,4.665411,-74.070452,Paradas SITP,#FDF202
54,Br. Ciudad Jardín Norte,SUBA,4.723893,-74.073246,Paradas SITP,#FDF202
55,Br. Florencia,ENGATIVA,4.69758,-74.105121,Paradas SITP,#FDF202
56,Estación Gobernación,TEUSAQUILLO,4.641956,-74.091352,Paradas SITP,#FDF202
57,Batallón Caldas,PUENTE ARANDA,4.634029,-74.102032,Paradas SITP,#FDF202
58,IED Sorrento,PUENTE ARANDA,4.618885,-74.113005,Paradas SITP,#FDF202
59,IED Francisco de Paula Santander,KENNEDY,4.625984,-74.159433,Paradas SITP,#FDF202
60,Barrio San Luis,PUENTE ARANDA,4.597853,-74.125004,Paradas SITP,#FDF202
61,Policía Nacional,TUNJUELITO,4.585961,-74.131051,Paradas SITP,#FDF202
62,Hsp. de Meissen,CIUDAD BOLIVAR,4.558902,-74.138747,Paradas SITP,#FDF202
63,Estación Molinos,RAFAEL URIBE URIBE,4.558103,-74.122287,Paradas SITP,#FDF202
64,Instituto Nacional de Cancerología,SANTA FE,4.588804,-74.084053,Paradas SITP,#FDF202
65,Monumento Rafael Uribe Uribe,BARRIOS UNIDOS,4.666417,-74.07184,Paradas SITP,#FDF202
66,Urb. Villas del Mediterráneo,USAQUEN,4.734557,-74.032206,Paradas SITP,#FDF202
67,Br. Prado Veraniego,SUBA,4.709996,-74.065911,Paradas SITP,#FDF202
68,Br. Los Cerezos,SUBA,4.716208,-74.092798,Paradas SITP,#FDF202
69,Avenida El Dorado,TEUSAQUILLO,4.641398,-74.091716,Paradas SITP,#FDF202
70,Br. Brasilia,PUENTE ARANDA,4.618612,-74.112944,Paradas SITP,#FDF202
71,Pq. Metropolitano Cayetano Cañizares,KENNEDY,4.62638,-74.159316,Paradas SITP,#FDF202
72,Br. Autopista Sur,PUENTE ARANDA,4.598349,-74.124854,Paradas SITP,#FDF202
73,Br. México,CIUDAD BOLIVAR,4.55504,-74.137427,Paradas SITP,#FDF202
74,Br. Molinos I Sector,TUNJUELITO,4.55366,-74.121355,Paradas SITP,#FDF202
75,Av. La Victoria,SAN CRISTOBAL,4.568619,-74.085898,Paradas SITP,#FDF202
76,Br. El Listón,LOS MARTIRES,4.613652,-74.082617,Paradas SITP,#FDF202
77,Br. Barrancas,USAQUEN,4.734749,-74.031886,Paradas SITP,#FDF202
78,C.C. Bulevar Niza,SUBA,4.711424,-74.071103,Paradas SITP,#FDF202
79,Br. La Granja,ENGATIVA,4.701076,-74.102382,Paradas SITP,#FDF202
80,Colegio Andrés Frey,ENGATIVA,4.681795,-74.099061,Paradas SITP,#FDF202
81,Avenida Esperanza,FONTIBON,4.662426,-74.115425,Paradas SITP,#FDF202
82,Br. Barcelona,PUENTE ARANDA,4.616224,-74.114248,Paradas SITP,#FDF202
83,IED San Pedro Claver,KENNEDY,4.623119,-74.16208,Paradas SITP,#FDF202
84,Urb. Villa Sonia,PUENTE ARANDA,4.594867,-74.126282,Paradas SITP,#FDF202
85,Br. Samore,TUNJUELITO,4.585156,-74.134699,Paradas SITP,#FDF202
86,Br. Lucero del Sur,CIUDAD BOLIVAR,4.554699,-74.137788,Paradas SITP,#FDF202
87,Escuela de Artillería No. 13,TUNJUELITO,4.547757,-74.121097,Paradas SITP,#FDF202
88,Br. San Blas,SAN CRISTOBAL,4.568441,-74.085905,Paradas SITP,#FDF202
89,Estación Comuneros,LOS MARTIRES,4.606011,-74.096851,Paradas SITP,#FDF202
90,Br. La Liberia,USAQUEN,4.73036,-74.032346,Paradas SITP,#FDF202
91,Colegio Sagrado Corazón de Jesús,SUBA,4.738088,-74.051195,Paradas SITP,#FDF202
92,Br. Lago de Suba,SUBA,4.735095,-74.099913,Paradas SITP,#FDF202
93,Br. La Española,ENGATIVA,4.706402,-74.098023,Paradas SITP,#FDF202
94,Avenida Calle 26,FONTIBON,4.665884,-74.112443,Paradas SITP,#FDF202
95,Br. La Primavera Norte,PUENTE ARANDA,4.616191,-74.114039,Paradas SITP,#FDF202
96,Urb Villa Sonia,PUENTE ARANDA,4.595059,-74.126491,Paradas SITP,#FDF202
97,Br. Fátima (Colegio La Presentación  Fátima),TUNJUELITO,4.584014,-74.138192,Paradas SITP,#FDF202
98,Ladrillera Santafé,USME,4.543728,-74.120916,Paradas SITP,#FDF202
99,IED Tomás Rueda Vargas,SAN CRISTOBAL,4.564829,-74.087097,Paradas SITP,#FDF202
100,C.C. Calima,LOS MARTIRES,4.619643,-74.086006,Paradas SITP,#FDF202
101,Avenida Calle 153,USAQUEN,4.730519,-74.03201,Paradas SITP,#FDF202
102,Colegio Colombo Hebreo,SUBA,4.738637,-74.053632,Paradas SITP,#FDF202
103,Br. Aures II,SUBA,4.734949,-74.100231,Paradas SITP,#FDF202
104,Br. La Serena,ENGATIVA,4.708972,-74.095434,Paradas SITP,#FDF202
105,Avenida José Celestino Mutis,ENGATIVA,4.683407,-74.114975,Paradas SITP,#FDF202
106,Br. Puente Grande,FONTIBON,4.694093,-74.168567,Paradas SITP,#FDF202
107,Br. Kasandra,FONTIBON,4.693859,-74.168636,Paradas SITP,#FDF202
108,Pq. Girasol,PUENTE ARANDA,4.614027,-74.115241,Paradas SITP,#FDF202
109,Urbanización La Capilla,BOSA,4.606893,-74.180858,Paradas SITP,#FDF202
110,Br. El Carmen,TUNJUELITO,4.584298,-74.137739,Paradas SITP,#FDF202
111,IED Ricaurte,LOS MARTIRES,4.605428,-74.094721,Paradas SITP,#FDF202
112,Pq. Cedritos,USAQUEN,4.723573,-74.032494,Paradas SITP,#FDF202
113,Mazurén 18,SUBA,4.737097,-74.059808,Paradas SITP,#FDF202
114,Portal de Suba,SUBA,4.745787,-74.096871,Paradas SITP,#FDF202
115,Br. Isabela I,ENGATIVA,4.686505,-74.111991,Paradas SITP,#FDF202
116,Br. San Pablo Jericó,FONTIBON,4.689625,-74.162957,Paradas SITP,#FDF202
117,Br. El Charco,FONTIBON,4.689585,-74.163338,Paradas SITP,#FDF202
118,Br. José Antonio Galán,BOSA,4.606738,-74.180496,Paradas SITP,#FDF202
119,Br. San Vicente,TUNJUELITO,4.582386,-74.14023,Paradas SITP,#FDF202
120,Br. Casa de Teja,CIUDAD BOLIVAR,4.540422,-74.13389,Paradas SITP,#FDF202
121,Br. Córdoba,SAN CRISTOBAL,4.563067,-74.088742,Paradas SITP,#FDF202
122,C.C. Altavista,USME,4.530428,-74.118975,Paradas SITP,#FDF202
123,CAI Santa Isabel,LOS MARTIRES,4.599275,-74.09961,Paradas SITP,#FDF202
124,Br. Bella Suiza,USAQUEN,4.706996,-74.032633,Paradas SITP,#FDF202
125,Br. Villa del Prado,SUBA,4.754028,-74.056948,Paradas SITP,#FDF202
126,C.C. Plaza Imperial,SUBA,4.750833,-74.094128,Paradas SITP,#FDF202
127,Br. Pinar de los Álamos,ENGATIVA,4.688922,-74.109848,Paradas SITP,#FDF202
128,Br. El Laurel,FONTIBON,4.687538,-74.160211,Paradas SITP,#FDF202
129,Br. El Charco I,FONTIBON,4.687904,-74.161156,Paradas SITP,#FDF202
130,IED Luis Carlos Galán,PUENTE ARANDA,4.611278,-74.116611,Paradas SITP,#FDF202
131,Br. La Estancia,BOSA,4.602524,-74.179306,Paradas SITP,#FDF202
132,Br. San Antonio,ANTONIO NARIÑO,4.593454,-74.096343,Paradas SITP,#FDF202
133,Portal Usme,USME,4.530128,-74.121547,Paradas SITP,#FDF202
134,Santa Inés Sur,SAN CRISTOBAL,4.562002,-74.089044,Paradas SITP,#FDF202
135,Br. San Bernardo,SANTA FE,4.590847,-74.087201,Paradas SITP,#FDF202
136,Br. Santa Bárbara Oriental,USAQUEN,4.701404,-74.032767,Paradas SITP,#FDF202
137,Colegio San Tarsicio,SUBA,4.754956,-74.059006,Paradas SITP,#FDF202
138,Pinos de Lombardía,SUBA,4.753211,-74.092865,Paradas SITP,#FDF202
139,Hsp. Infantil San José,BARRIOS UNIDOS,4.666437,-74.078216,Paradas SITP,#FDF202
140,Br. Florida Blanca,ENGATIVA,4.6931,-74.107562,Paradas SITP,#FDF202
141,Br. Santiago,FONTIBON,4.681779,-74.155833,Paradas SITP,#FDF202
142,Salón Comunal el Jazmín,PUENTE ARANDA,4.610196,-74.116952,Paradas SITP,#FDF202
143,Br. Villa Nhora,BOSA,4.602796,-74.179095,Paradas SITP,#FDF202
144,Br. La Fragüita,ANTONIO NARIÑO,4.593273,-74.096859,Paradas SITP,#FDF202
145,Br. El Porvenir II Sector,USME,4.532728,-74.115497,Paradas SITP,#FDF202
146,Atenas,SAN CRISTOBAL,4.559286,-74.090521,Paradas SITP,#FDF202
147,Br. La Esperanza,BARRIOS UNIDOS,4.649981,-74.066162,Paradas SITP,#FDF202
148,Universidad Antonio Nariño,SUBA,4.757331,-74.061313,Paradas SITP,#FDF202
149,Tuna Baja Las Flores,SUBA,4.752892,-74.092769,Paradas SITP,#FDF202
150,Pq. Público Modelo,BARRIOS UNIDOS,4.668954,-74.079967,Paradas SITP,#FDF202
151,Br. La Clarita,ENGATIVA,4.694401,-74.10666,Paradas SITP,#FDF202
152,Urb Portal Del Centenario,FONTIBON,4.677391,-74.153771,Paradas SITP,#FDF202
153,Zona Franca,FONTIBON,4.676935,-74.154075,Paradas SITP,#FDF202
154,Br. Remanso Sur,PUENTE ARANDA,4.605971,-74.119579,Paradas SITP,#FDF202
155,Barrio La Estancia,BOSA,4.599623,-74.178055,Paradas SITP,#FDF202
156,Br. Muzú,TUNJUELITO,4.579131,-74.1435,Paradas SITP,#FDF202
157,La Fraguita,ANTONIO NARIÑO,4.591568,-74.098204,Paradas SITP,#FDF202
158,Parque Entrenubes,RAFAEL URIBE URIBE,4.546553,-74.10348,Paradas SITP,#FDF202
159,Parque Columnas,SAN CRISTOBAL,4.559351,-74.090334,Paradas SITP,#FDF202
160,Centro Johann Kepler,TEUSAQUILLO,4.649914,-74.067011,Paradas SITP,#FDF202
161,Br. Molinos Norte,USAQUEN,4.689531,-74.040427,Paradas SITP,#FDF202
162,Pq. San José de Bavaria,BOSA,4.757157,-74.061786,Paradas SITP,#FDF202
163,Br. Niza (Humedal Córdoba),SUBA,4.705756,-74.081716,Paradas SITP,#FDF202
164,Jardín Botánico,ENGATIVA,4.67032,-74.100182,Paradas SITP,#FDF202
165,Br. Barichara,FONTIBON,4.670449,-74.151729,Paradas SITP,#FDF202
166,Br. Sabana Grande,FONTIBON,4.671379,-74.152253,Paradas SITP,#FDF202
167,Br. San Eusebio,PUENTE ARANDA,4.605615,-74.119499,Paradas SITP,#FDF202
168,Br. Hipotecho Occidental,KENNEDY,4.619682,-74.138988,Paradas SITP,#FDF202
169,Pq. La Coruña,CIUDAD BOLIVAR,4.580468,-74.151278,Paradas SITP,#FDF202
170,Instituto Los Ángeles,RAFAEL URIBE URIBE,4.54874,-74.105821,Paradas SITP,#FDF202
171,Br. Baquero,BARRIOS UNIDOS,4.650518,-74.069204,Paradas SITP,#FDF202
172,Barrio Iragua,SUBA,4.76079,-74.066531,Paradas SITP,#FDF202
173,Montessori British School,SUBA,4.715361,-74.076583,Paradas SITP,#FDF202
174,Pq. Metrópolis,BARRIOS UNIDOS,4.678877,-74.084882,Paradas SITP,#FDF202
175,Br. Bosque Popular,ENGATIVA,4.669373,-74.098555,Paradas SITP,#FDF202
176,C.C. Portal de La Sabana,FONTIBON,4.67364,-74.152637,Paradas SITP,#FDF202
177,Urb. Kalamary,CIUDAD BOLIVAR,4.58077,-74.151508,Paradas SITP,#FDF202
178,Br. Restrepo Occidental,ANTONIO NARIÑO,4.586108,-74.103176,Paradas SITP,#FDF202
179,Br. Los Molinos II Sector,RAFAEL URIBE URIBE,4.550416,-74.10783,Paradas SITP,#FDF202
180,Pq.Metrópolis,BARRIOS UNIDOS,4.678034,-74.085474,Paradas SITP,#FDF202
181,Br. Muequetá,BARRIOS UNIDOS,4.651024,-74.071991,Paradas SITP,#FDF202
182,Escuela de Infantería,USAQUEN,4.687948,-74.042567,Paradas SITP,#FDF202
183,KR 78,SUBA,4.762874,-74.069317,Paradas SITP,#FDF202
184,Montessori itish School,SUBA,4.715685,-74.076099,Paradas SITP,#FDF202
185,Centro Comercial Portal de la 80,ENGATIVA,4.709791,-74.111766,Paradas SITP,#FDF202
186,Br. San Pedro,FONTIBON,4.666673,-74.147934,Paradas SITP,#FDF202
187,Br. El Tintal - Santa Helena,FONTIBON,4.666123,-74.147072,Paradas SITP,#FDF202
188,Salón Comunal Villa Clemencia,BOSA,4.619726,-74.183203,Paradas SITP,#FDF202
189,IED Alfonso López Pumarejo,KENNEDY,4.606925,-74.142073,Paradas SITP,#FDF202
190,Br. Libertador,RAFAEL URIBE URIBE,4.583363,-74.113811,Paradas SITP,#FDF202
191,Estadio Olaya,RAFAEL URIBE URIBE,4.584335,-74.107737,Paradas SITP,#FDF202
192,Br. La Victoria,SAN CRISTOBAL,4.554333,-74.092247,Paradas SITP,#FDF202
193,Br. Quinta Mutis,BARRIOS UNIDOS,4.651395,-74.074019,Paradas SITP,#FDF202
194,Br. Campanella,SUBA,4.752141,-74.0841,Paradas SITP,#FDF202
195,Gimnasio Moderno Montesoriano,ENGATIVA,4.725193,-74.123865,Paradas SITP,#FDF202
196,Br. La Esmeralda,TEUSAQUILLO,4.647232,-74.08704,Paradas SITP,#FDF202
197,Urb. Valparaíso,FONTIBON,4.665349,-74.144368,Paradas SITP,#FDF202
198,Vereda El Tintal Urbano,FONTIBON,4.66491,-74.143899,Paradas SITP,#FDF202
199,Br. El Progreso I Sector,KENNEDY,4.602779,-74.143608,Paradas SITP,#FDF202
200,Br. Murillo Toro,RAFAEL URIBE URIBE,4.581799,-74.118397,Paradas SITP,#FDF202
201,Biblioteca Carlos Restrepo,ANTONIO NARIÑO,4.584468,-74.103902,Paradas SITP,#FDF202
202,Col Nuestra Señora del Pilar,TEUSAQUILLO,4.651309,-74.074733,Paradas SITP,#FDF202
203,Br. Santa Bárbara Central,USAQUEN,4.701599,-74.042767,Paradas SITP,#FDF202
204,Br. Engativá El Dorado,ENGATIVA,4.72355,-74.123024,Paradas SITP,#FDF202
205,Las Ferias,ENGATIVA,4.683303,-74.091861,Paradas SITP,#FDF202
206,Br. Prado Grande,FONTIBON,4.663093,-74.138958,Paradas SITP,#FDF202
207,Versalles Fontibón,FONTIBON,4.662634,-74.138986,Paradas SITP,#FDF202
208,CL 53 S,BOSA,4.624728,-74.178604,Paradas SITP,#FDF202
209,Br. Timiza,KENNEDY,4.61415,-74.161851,Paradas SITP,#FDF202
210,Urb. Quiroga IX Etapa,RAFAEL URIBE URIBE,4.580941,-74.12091,Paradas SITP,#FDF202
211,Br. Centenario,RAFAEL URIBE URIBE,4.584365,-74.110377,Paradas SITP,#FDF202
212,Cl 41 A Bis Sur,SAN CRISTOBAL,4.549266,-74.092555,Paradas SITP,#FDF202
213,IED Alemania Solidaria,BARRIOS UNIDOS,4.651711,-74.075718,Paradas SITP,#FDF202
214,Br. Santa Bárbara Central I y II,USAQUEN,4.695693,-74.040708,Paradas SITP,#FDF202
215,Br. Iberia,SUBA,4.724702,-74.067485,Paradas SITP,#FDF202
216,Parque Residencial Nueva Suba,SUBA,4.753344,-74.089751,Paradas SITP,#FDF202
217,Br. San Joaquín Norte,ENGATIVA,4.678327,-74.095455,Paradas SITP,#FDF202
218,Br. Ciudad Hayuelos,FONTIBON,4.657896,-74.134465,Paradas SITP,#FDF202
219,Br. Interindustrial,FONTIBON,4.653387,-74.130608,Paradas SITP,#FDF202
220,Colegio Colsubsidio Chicalá,BOSA,4.62392,-74.179145,Paradas SITP,#FDF202
221,Br. Tocarema,KENNEDY,4.61236,-74.161447,Paradas SITP,#FDF202
222,Br. Olaya,RAFAEL URIBE URIBE,4.584213,-74.110006,Paradas SITP,#FDF202
223,Br. La Aurora,USME,4.521339,-74.123001,Paradas SITP,#FDF202
224,Cl 41 Sur,SAN CRISTOBAL,4.549535,-74.092623,Paradas SITP,#FDF202
225, Siete de Agosto,BARRIOS UNIDOS,4.657983,-74.070428,Paradas SITP,#FDF202
226,Br. Santa Bárbara Occidental,USAQUEN,4.697186,-74.044784,Paradas SITP,#FDF202
227,Br. Tuna Baja,SUBA,4.753167,-74.089001,Paradas SITP,#FDF202
228,Br. Lusitania,KENNEDY,4.640533,-74.123086,Paradas SITP,#FDF202
229,Urbanización Alameda de San José II,KENNEDY,4.626271,-74.175676,Paradas SITP,#FDF202
230,Br. Lagos de Timiza II,KENNEDY,4.610739,-74.161185,Paradas SITP,#FDF202
231,Br. Santa Lucía,RAFAEL URIBE URIBE,4.578979,-74.127152,Paradas SITP,#FDF202
232,Br. Quiroga,RAFAEL URIBE URIBE,4.582972,-74.114543,Paradas SITP,#FDF202
233,Br. 20 de Julio,SAN CRISTOBAL,4.574705,-74.095344,Paradas SITP,#FDF202
234,Pl. 7 de Agosto,BARRIOS UNIDOS,4.656973,-74.070889,Paradas SITP,#FDF202
235,Br. Ciudad Bachué I Etapa,ENGATIVA,4.714687,-74.099583,Paradas SITP,#FDF202
236,Hospital Engativá,ENGATIVA,4.673265,-74.099038,Paradas SITP,#FDF202
237,Br. Montevideo,FONTIBON,4.644434,-74.123975,Paradas SITP,#FDF202
238,Salazar Gómez,PUENTE ARANDA,4.634626,-74.115255,Paradas SITP,#FDF202
239,Br. Las Margaritas,KENNEDY,4.626384,-74.176042,Paradas SITP,#FDF202
240,Urb. Lago de Timiza,KENNEDY,4.608743,-74.161568,Paradas SITP,#FDF202
241,Br. Eduardo Frei,ANTONIO NARIÑO,4.5947,-74.112837,Paradas SITP,#FDF202
242,Br. Santa Librada,USME,4.517274,-74.121584,Paradas SITP,#FDF202
243,Br. Salazar Gómez,PUENTE ARANDA,4.634626,-74.115255,Paradas SITP,#FDF202
244, San Luis CL 58,TEUSAQUILLO,4.645869,-74.072408,Paradas SITP,#FDF202
245,Br. San Patricio,USAQUEN,4.697591,-74.0471,Paradas SITP,#FDF202
246,Br. El Carmen Tuna Baja,SUBA,4.756643,-74.095328,Paradas SITP,#FDF202
247,Desarrollo Luis Carlos Galán,ENGATIVA,4.715028,-74.099667,Paradas SITP,#FDF202
248,Br. La Estrada,ENGATIVA,4.673213,-74.098973,Paradas SITP,#FDF202
249,Portal Américas,KENNEDY,4.627691,-74.172101,Paradas SITP,#FDF202
250,Br. Timiza B,KENNEDY,4.608782,-74.161345,Paradas SITP,#FDF202
251,Br. Quintas de Plan Social,USME,4.517684,-74.122118,Paradas SITP,#FDF202
252, San Luis,TEUSAQUILLO,4.644132,-74.072861,Paradas SITP,#FDF202
253,C.C. Paseo San Rafael,SUBA,4.722656,-74.062434,Paradas SITP,#FDF202
254,Villa Elisa,SUBA,4.732183,-74.090365,Paradas SITP,#FDF202
255,Br. Normandía,ENGATIVA,4.666757,-74.105819,Paradas SITP,#FDF202
256,Centro Industrial,PUENTE ARANDA,4.635779,-74.115872,Paradas SITP,#FDF202
257,Br. Olarte,BOSA,4.602595,-74.162074,Paradas SITP,#FDF202
258,Br. Chuniza I,USME,4.506511,-74.112173,Paradas SITP,#FDF202
259,IED Palermo,TEUSAQUILLO,4.638224,-74.074648,Paradas SITP,#FDF202
260,Ciudad Bachué,ENGATIVA,4.717624,-74.102302,Paradas SITP,#FDF202
261,Puente Aranda,PUENTE ARANDA,4.63226,-74.111845,Paradas SITP,#FDF202
262,Br. Industrial Centenario,PUENTE ARANDA,4.624832,-74.093818,Paradas SITP,#FDF202
263,Br. Tintalito,KENNEDY,4.629397,-74.168873,Paradas SITP,#FDF202
264,Br. Villa del Río,BOSA,4.602709,-74.16177,Paradas SITP,#FDF202
265,Br. Santander Sur,ANTONIO NARIÑO,4.59376,-74.113354,Paradas SITP,#FDF202
266,Pquia. San Luis Gonzaga,RAFAEL URIBE URIBE,4.579646,-74.124139,Paradas SITP,#FDF202
267,Br. Gran Yomasa,USME,4.506755,-74.112324,Paradas SITP,#FDF202
268,Br. Granada Sur,SAN CRISTOBAL,4.568898,-74.093671,Paradas SITP,#FDF202
269,Br. Palermo  AC 45,TEUSAQUILLO,4.635008,-74.075211,Paradas SITP,#FDF202
270,Colegio de la Salle,USAQUEN,4.748458,-74.032414,Paradas SITP,#FDF202
271,Urb. Bosques de Gratamira,SUBA,4.730729,-74.07173,Paradas SITP,#FDF202
272,Costa Azul,SUBA,4.735792,-74.099488,Paradas SITP,#FDF202
273,Br. Cundinamarca,PUENTE ARANDA,4.62049,-74.090434,Paradas SITP,#FDF202
274,C.C. Milenio Plaza,KENNEDY,4.629693,-74.168993,Paradas SITP,#FDF202
275,IED Benjamín Herrera,PUENTE ARANDA,4.601518,-74.119924,Paradas SITP,#FDF202
276,SENA,ANTONIO NARIÑO,4.595015,-74.111997,Paradas SITP,#FDF202
277,Br. Tunal Oriental,TUNJUELITO,4.575424,-74.13418,Paradas SITP,#FDF202
278,IED Javier Matiz,SAN CRISTOBAL,4.565336,-74.094489,Paradas SITP,#FDF202
279,Br. Costa Azul,SUBA,4.735171,-74.098006,Paradas SITP,#FDF202
280,Pq. El Renacimiento,LOS MARTIRES,4.618689,-74.077973,Paradas SITP,#FDF202
281,Villas de Aranjuez,USAQUEN,4.748519,-74.034852,Paradas SITP,#FDF202
282,Br. El Encanto,ENGATIVA,4.675747,-74.103583,Paradas SITP,#FDF202
283,Br. Baleares,FONTIBON,4.668214,-74.128458,Paradas SITP,#FDF202
284,Br. La Florida Occidental,PUENTE ARANDA,4.624913,-74.087821,Paradas SITP,#FDF202
285,Br. Llano Grande,KENNEDY,4.631624,-74.166247,Paradas SITP,#FDF202
286,Br. Catalina,KENNEDY,4.614025,-74.166444,Paradas SITP,#FDF202
287,AV. Jorge Gaitán Cortes,TUNJUELITO,4.580793,-74.142802,Paradas SITP,#FDF202
288,INEM Tunal,TUNJUELITO,4.575447,-74.133544,Paradas SITP,#FDF202
289,Cementerio Central,LOS MARTIRES,4.617882,-74.075521,Paradas SITP,#FDF202
290,Br. La Uribe,USAQUEN,4.750765,-74.043534,Paradas SITP,#FDF202
291,Br. Atenas - Hibernia,SUBA,4.731361,-74.073589,Paradas SITP,#FDF202
292,Br. Villa María,SUBA,4.737464,-74.103428,Paradas SITP,#FDF202
293,Avenida Calle 63,ENGATIVA,4.675477,-74.103246,Paradas SITP,#FDF202
294,Mallorca,FONTIBON,4.671298,-74.126144,Paradas SITP,#FDF202
295,Br. Centro Urbano,PUENTE ARANDA,4.625662,-74.09222,Paradas SITP,#FDF202
296,Br. Provivienda Occidental,KENNEDY,4.632402,-74.165774,Paradas SITP,#FDF202
297,Br. Roma,KENNEDY,4.61364,-74.173879,Paradas SITP,#FDF202
298,Br. Madelena,CIUDAD BOLIVAR,4.588433,-74.161033,Paradas SITP,#FDF202
299,Br. El Tunal,TUNJUELITO,4.574043,-74.137605,Paradas SITP,#FDF202
300,Br. Bello Horizonte,SAN CRISTOBAL,4.562704,-74.096101,Paradas SITP,#FDF202
301, Santa Fe,LOS MARTIRES,4.615579,-74.080173,Paradas SITP,#FDF202
302,Avenida Calle 170,USAQUEN,4.750563,-74.044063,Paradas SITP,#FDF202
303,Aures I,SUBA,4.733978,-74.093902,Paradas SITP,#FDF202
304,Homecenter,ENGATIVA,4.681921,-74.116343,Paradas SITP,#FDF202
305,Br. Rincón De Modelia,FONTIBON,4.67132,-74.125775,Paradas SITP,#FDF202
306,Br. Saucedal,KENNEDY,4.635093,-74.162176,Paradas SITP,#FDF202
307,CAI Las Delicias,KENNEDY,4.598841,-74.145087,Paradas SITP,#FDF202
308,Br. El Ensueño,CIUDAD BOLIVAR,4.587374,-74.161016,Paradas SITP,#FDF202
309,Pq. El Tunal,TUNJUELITO,4.573881,-74.137474,Paradas SITP,#FDF202
310,Br. Villa de Los Alpes,SAN CRISTOBAL,4.562146,-74.097086,Paradas SITP,#FDF202
311,Urb. La Chucua,SUBA,4.733902,-74.09362,Paradas SITP,#FDF202
312,Avenida Calle 134,USAQUEN,4.7169,-74.047082,Paradas SITP,#FDF202
313,Carrera 62,SUBA,4.754884,-74.058365,Paradas SITP,#FDF202
314,Br. Quirigua,ENGATIVA,4.713226,-74.09804,Paradas SITP,#FDF202
315,Centro Empresarial Dorado Plaza,FONTIBON,4.675421,-74.122492,Paradas SITP,#FDF202
316,Br. El Ejido,PUENTE ARANDA,4.626206,-74.100677,Paradas SITP,#FDF202
317,Estación Patio Bonito,KENNEDY,4.635139,-74.162563,Paradas SITP,#FDF202
318,Br. Nuevo San Andrés,USME,4.526694,-74.11962,Paradas SITP,#FDF202
319,Br. Las Guacamayas,SAN CRISTOBAL,4.558433,-74.098675,Paradas SITP,#FDF202
320,Br. El Vergel,LOS MARTIRES,4.5996,-74.095409,Paradas SITP,#FDF202
321,Club El Country,USAQUEN,4.713825,-74.047507,Paradas SITP,#FDF202
322,Jugos California,ENGATIVA,4.684582,-74.114163,Paradas SITP,#FDF202
323,Br. Patio Bonito,KENNEDY,4.638102,-74.159431,Paradas SITP,#FDF202
324,Br. Verona,CIUDAD BOLIVAR,4.57692,-74.155384,Paradas SITP,#FDF202
325,CAI Candelaria,CIUDAD BOLIVAR,4.572736,-74.15228,Paradas SITP,#FDF202
326,Br. Santa Marta,USME,4.526745,-74.119448,Paradas SITP,#FDF202
327,Br. Alcaparros de Suba,SUBA,4.736321,-74.101079,Paradas SITP,#FDF202
328,Br. Santa Isabel,LOS MARTIRES,4.601562,-74.098184,Paradas SITP,#FDF202
329,Calle 127A,USAQUEN,4.707342,-74.048771,Paradas SITP,#FDF202
330,Urb. El pinar la Fragua II Etapa,SUBA,4.73572,-74.062456,Paradas SITP,#FDF202
331,CED El Salitre - Suba,SUBA,4.756913,-74.079366,Paradas SITP,#FDF202
332,Br. Centro Nariño,TEUSAQUILLO,4.626038,-74.090416,Paradas SITP,#FDF202
333,Portal de las Américas,KENNEDY,4.629782,-74.171751,Paradas SITP,#FDF202
334,Colegio Santiago de las Atalayas,BOSA,4.629481,-74.193039,Paradas SITP,#FDF202
335,Br. Venecia,TUNJUELITO,4.594029,-74.137882,Paradas SITP,#FDF202
336,Br. Cartagena,USME,4.523762,-74.118227,Paradas SITP,#FDF202
337,Br. Veraguas,LOS MARTIRES,4.60093,-74.096998,Paradas SITP,#FDF202
338,Br. El Pinar La Fragua,SUBA,4.73497,-74.062617,Paradas SITP,#FDF202
339,Br. Garcés Navas,ENGATIVA,4.715784,-74.118933,Paradas SITP,#FDF202
340,Br. Boyacá,ENGATIVA,4.684401,-74.097256,Paradas SITP,#FDF202
341,Br. Comuneros,PUENTE ARANDA,4.604885,-74.102866,Paradas SITP,#FDF202
342,Br. Villa de la Loma,KENNEDY,4.627091,-74.169702,Paradas SITP,#FDF202
343,Br. Kennedy Super Manzana 6,KENNEDY,4.615502,-74.151699,Paradas SITP,#FDF202
344,Br. La Laguna,TUNJUELITO,4.591868,-74.138496,Paradas SITP,#FDF202
345,Br. El Satélite,CIUDAD BOLIVAR,4.570473,-74.148924,Paradas SITP,#FDF202
346,Br. Barranquillita,USME,4.523612,-74.118016,Paradas SITP,#FDF202
347,Urb. La Laguna,PUENTE ARANDA,4.591332,-74.138603,Paradas SITP,#FDF202
348,Br. Ginebra Norte,USAQUEN,4.711607,-74.02954,Paradas SITP,#FDF202
349,Urb. Bosque de la Colina,SUBA,4.729982,-74.063677,Paradas SITP,#FDF202
350,Br. Salitre Suba,SUBA,4.754521,-74.080435,Paradas SITP,#FDF202
351,Br. Villas de Granada I,ENGATIVA,4.714857,-74.120352,Paradas SITP,#FDF202
352,Br. Palo Blanco,ENGATIVA,4.684471,-74.096692,Paradas SITP,#FDF202
353,Br. Villa Nelly,KENNEDY,4.625082,-74.169198,Paradas SITP,#FDF202
354,Br. El Centenario,RAFAEL URIBE URIBE,4.587158,-74.10751,Paradas SITP,#FDF202
355,Br. La Fortaleza,USME,4.520203,-74.117538,Paradas SITP,#FDF202
356,Br. Atenas,SAN CRISTOBAL,4.556324,-74.095612,Paradas SITP,#FDF202
357,Estación Marly,CHAPINERO,4.640342,-74.065584,Paradas SITP,#FDF202
358,Br. Lisboa,USAQUEN,4.713863,-74.032768,Paradas SITP,#FDF202
359,Urb. Aticos del Norte,SUBA,4.725477,-74.065448,Paradas SITP,#FDF202
360,Br. Tuna Alta,SUBA,4.75463,-74.080242,Paradas SITP,#FDF202
361,Corferias,TEUSAQUILLO,4.631316,-74.093289,Paradas SITP,#FDF202
362,Br. Tibaná,PUENTE ARANDA,4.609322,-74.108473,Paradas SITP,#FDF202
363,Multifamiliares Carimagua,KENNEDY,4.613548,-74.150479,Paradas SITP,#FDF202
364,Br. Fátima,TUNJUELITO,4.585421,-74.136664,Paradas SITP,#FDF202
365, Santa Lucía,RAFAEL URIBE URIBE,4.574037,-74.123824,Paradas SITP,#FDF202
366,Br. El Recuerdo,USME,4.520352,-74.117415,Paradas SITP,#FDF202
367,Br. Guacamayas I,SAN CRISTOBAL,4.556102,-74.095571,Paradas SITP,#FDF202
368,Br. Banco Central,TEUSAQUILLO,4.641279,-74.070945,Paradas SITP,#FDF202
369,Urb. La Colina Campestre,SUBA,4.723023,-74.066559,Paradas SITP,#FDF202
370,C.C. Rosales de Suba,SUBA,4.752583,-74.081418,Paradas SITP,#FDF202
371,Br. Garcés Navas Sur,ENGATIVA,4.71303,-74.122674,Paradas SITP,#FDF202
372,Parque Metropolitano Simón Bolívar,TEUSAQUILLO,4.652593,-74.093831,Paradas SITP,#FDF202
373,Av. Villavicencio,KENNEDY,4.619301,-74.164878,Paradas SITP,#FDF202
374,Estación Santa Lucía,RAFAEL URIBE URIBE,4.57092,-74.124877,Paradas SITP,#FDF202
375,Country Club,USAQUEN,4.714833,-74.039391,Paradas SITP,#FDF202
376,IED Tuna Alta Sede C,SUBA,4.753438,-74.08093,Paradas SITP,#FDF202
377,Br. Pablo VI,TEUSAQUILLO,4.649268,-74.089092,Paradas SITP,#FDF202
378,Br. Quinta Paredes,TEUSAQUILLO,4.632746,-74.094069,Paradas SITP,#FDF202
379,Br. Colón,PUENTE ARANDA,4.619504,-74.119259,Paradas SITP,#FDF202
380,Br. Ciudad Kennedy Sur,KENNEDY,4.617365,-74.163738,Paradas SITP,#FDF202
381,Conjunto Residencial La Rebeca,KENNEDY,4.610463,-74.148389,Paradas SITP,#FDF202
382,Br. Santa Isabel V Sector,LOS MARTIRES,4.597672,-74.106284,Paradas SITP,#FDF202
383,Estación Socorro,TUNJUELITO,4.564382,-74.125622,Paradas SITP,#FDF202
384,C.C. Galerías,TEUSAQUILLO,4.642057,-74.07519,Paradas SITP,#FDF202
385,Br. Las Villas,SUBA,4.715737,-74.069962,Paradas SITP,#FDF202
386,CAI El Pinar,SUBA,4.750215,-74.08276,Paradas SITP,#FDF202
387,Br. Ciudadela Colsubsidio,ENGATIVA,4.724109,-74.116635,Paradas SITP,#FDF202
388,Portal Eldorado,ENGATIVA,4.680811,-74.120165,Paradas SITP,#FDF202
389,Br. San Gabriel,PUENTE ARANDA,4.621135,-74.120963,Paradas SITP,#FDF202
390,Br. Pastrana,KENNEDY,4.616101,-74.163287,Paradas SITP,#FDF202
391,Parque Los Urapanes,KENNEDY,4.606143,-74.14558,Paradas SITP,#FDF202
392,Estación Consuelo,TUNJUELITO,4.561244,-74.124543,Paradas SITP,#FDF202
393,C.C. Santa Librada,USME,4.51483,-74.116388,Paradas SITP,#FDF202
394,Br. Bellavista Sur,SAN CRISTOBAL,4.551264,-74.090118,Paradas SITP,#FDF202
395,Br. Galerías,TEUSAQUILLO,4.642169,-74.076752,Paradas SITP,#FDF202
396,Avenida El Cortijo,ENGATIVA,4.72245,-74.120283,Paradas SITP,#FDF202
397,Pq. Quinta Paredes Paraíso,TEUSAQUILLO,4.63447,-74.095429,Paradas SITP,#FDF202
398,Br. La Pradera,PUENTE ARANDA,4.623418,-74.123187,Paradas SITP,#FDF202
399,Br. La Asunción,PUENTE ARANDA,4.604015,-74.101898,Paradas SITP,#FDF202
400,Br. La Campiña,KENNEDY,4.607163,-74.146123,Paradas SITP,#FDF202
401,Br. Sultana,ANTONIO NARIÑO,4.596157,-74.11038,Paradas SITP,#FDF202
402,Alcaldía Local de Tunjuelito,TUNJUELITO,4.556059,-74.1216,Paradas SITP,#FDF202
403,Br. Bellavista,SAN CRISTOBAL,4.551612,-74.090159,Paradas SITP,#FDF202
404,Br. Chicó Oriental,CHAPINERO,4.669698,-74.044502,Paradas SITP,#FDF202
405,Br. El Contador,USAQUEN,4.717704,-74.046573,Paradas SITP,#FDF202
406,Br. Bosques de San Jorge,SUBA,4.747047,-74.084283,Paradas SITP,#FDF202
407,Éxito Occidente,ENGATIVA,4.720956,-74.121592,Paradas SITP,#FDF202
408,Br. Primavera Occidental,PUENTE ARANDA,4.613328,-74.112231,Paradas SITP,#FDF202
409,Br. Brasilia La Estación,BOSA,4.602154,-74.182445,Paradas SITP,#FDF202
410,Br. La Fragua,ANTONIO NARIÑO,4.59584,-74.11039,Paradas SITP,#FDF202
411,IED Miguel de Cervantes,USME,4.511696,-74.115146,Paradas SITP,#FDF202
412,Pq. La Herradura,SAN CRISTOBAL,4.548516,-74.089044,Paradas SITP,#FDF202
413,Br. El Refugio,CHAPINERO,4.666544,-74.046,Paradas SITP,#FDF202
414,Av. Carrera 19,USAQUEN,4.71775,-74.047832,Paradas SITP,#FDF202
415,Humedal Córdoba,SUBA,4.704881,-74.065199,Paradas SITP,#FDF202
416,Cl 150A,SUBA,4.746522,-74.084465,Paradas SITP,#FDF202
417,C.C. Gran Estación,TEUSAQUILLO,4.645502,-74.103405,Paradas SITP,#FDF202
418,Br. El Vergel Oriental,KENNEDY,4.649535,-74.146525,Paradas SITP,#FDF202
419,Br. Jorge Gaitán Cortés,PUENTE ARANDA,4.607345,-74.106482,Paradas SITP,#FDF202
420,Br. La Estación,BOSA,4.602408,-74.18121,Paradas SITP,#FDF202
421,Br. Sierra Morena,CIUDAD BOLIVAR,4.578462,-74.166515,Paradas SITP,#FDF202
422,Embajada del Perú,CHAPINERO,4.662774,-74.048816,Paradas SITP,#FDF202
423,Urb. Nueva Autopista II Sector,USAQUEN,4.718814,-74.049908,Paradas SITP,#FDF202
424,Br. El Batán,SUBA,4.708228,-74.064427,Paradas SITP,#FDF202
425,CAMI Suba,SUBA,4.743024,-74.084561,Paradas SITP,#FDF202
426,Parque Bosques de Granada,ENGATIVA,4.71875,-74.123457,Paradas SITP,#FDF202
427,Villas del Dorado San Antonio,ENGATIVA,4.705,-74.127918,Paradas SITP,#FDF202
428,Imprenta Nacional de Colombia,TEUSAQUILLO,4.647342,-74.104939,Paradas SITP,#FDF202
429,Br. Ciudad Alsacia,FONTIBON,4.642659,-74.123979,Paradas SITP,#FDF202
430,C.R. La Capilla,BOSA,4.606354,-74.182957,Paradas SITP,#FDF202
431,CED. Ciudad Bolívar,CIUDAD BOLIVAR,4.578231,-74.166529,Paradas SITP,#FDF202
432,Plaza de Mercado Santa Librada,USME,4.509234,-74.114335,Paradas SITP,#FDF202
433,Pq. Bellavista Sur Oriental,SAN CRISTOBAL,4.550168,-74.087891,Paradas SITP,#FDF202
434,Br. La Estanzuela,LOS MARTIRES,4.600866,-74.089904,Paradas SITP,#FDF202
435,Colegio Sto. Tomas de Aquino,USAQUEN,4.718312,-74.049443,Paradas SITP,#FDF202
436,IED Juan Lozano,SUBA,4.738974,-74.084586,Paradas SITP,#FDF202
437,Br. Bosques de Granada,ENGATIVA,4.717904,-74.125945,Paradas SITP,#FDF202
438,Br. San Antonio Engativá,ENGATIVA,4.704875,-74.127891,Paradas SITP,#FDF202
439,Br. Galán,PUENTE ARANDA,4.616385,-74.11627,Paradas SITP,#FDF202
440,Pl. de Mercado Bosa Centro,BOSA,4.609762,-74.185087,Paradas SITP,#FDF202
441,Estación Perdomo,CIUDAD BOLIVAR,4.595537,-74.166687,Paradas SITP,#FDF202
442,Br. San Carlos,TUNJUELITO,4.564285,-74.128729,Paradas SITP,#FDF202
443,Pq. Bellavista,SAN CRISTOBAL,4.550198,-74.087984,Paradas SITP,#FDF202
444,IED Cristóbal Colón (Colegio María Inmaculada),USAQUEN,4.744581,-74.02216,Paradas SITP,#FDF202
445,Parque Córdoba,SUBA,4.703317,-74.065551,Paradas SITP,#FDF202
446, Sabana de Tibabuyes,SUBA,4.742127,-74.090963,Paradas SITP,#FDF202
447,Salón Comunitario Villas del Dorado,ENGATIVA,4.702578,-74.129894,Paradas SITP,#FDF202
448,Br. Capellanía,FONTIBON,4.663528,-74.117724,Paradas SITP,#FDF202
449,Estación Madelena,CIUDAD BOLIVAR,4.596106,-74.156648,Paradas SITP,#FDF202
450,Br. Buenos Aires,CIUDAD BOLIVAR,4.537959,-74.139827,Paradas SITP,#FDF202
451,Br. Sociego Sur,RAFAEL URIBE URIBE,4.573935,-74.100502,Paradas SITP,#FDF202
452,Br. Las Lomas,SAN CRISTOBAL,4.561236,-74.100958,Paradas SITP,#FDF202
453,Colegio María Inmaculada,USAQUEN,4.744006,-74.022149,Paradas SITP,#FDF202
454,Embajada de Francia,CHAPINERO,4.673951,-74.047957,Paradas SITP,#FDF202
455,CUN Sede Norte,USAQUEN,4.743459,-74.022453,Paradas SITP,#FDF202
456,Br. Niza,SUBA,4.706494,-74.07133,Paradas SITP,#FDF202
457,Villas de Alcalá,ENGATIVA,4.715481,-74.128538,Paradas SITP,#FDF202
458,Av. Gonzalo Ariza,ENGATIVA,4.702278,-74.129589,Paradas SITP,#FDF202
459,Centro Educativo Argelia,BOSA,4.612619,-74.18679,Paradas SITP,#FDF202
460,Estación La Sevillana,TUNJUELITO,4.595095,-74.148844,Paradas SITP,#FDF202
461,Br. La Cabrera,CHAPINERO,4.667417,-74.05188,Paradas SITP,#FDF202
462,SENA Usaquén,USAQUEN,4.728309,-74.024563,Paradas SITP,#FDF202
463,Br. Ilarco,SUBA,4.701198,-74.068071,Paradas SITP,#FDF202
464,Urb. Morato,SUBA,4.698776,-74.069939,Paradas SITP,#FDF202
465,Villas de Granada,ENGATIVA,4.715327,-74.128107,Paradas SITP,#FDF202
466,Br. Santa Cecilia,FONTIBON,4.666975,-74.12057,Paradas SITP,#FDF202
467,IED Isabel II,KENNEDY,4.635193,-74.152527,Paradas SITP,#FDF202
468,Centro Comunitario Bosa,BOSA,4.597833,-74.180484,Paradas SITP,#FDF202
469,Estación Venecia,TUNJUELITO,4.595343,-74.141453,Paradas SITP,#FDF202
470,Br. Gustavo Restrepo,RAFAEL URIBE URIBE,4.575467,-74.1025,Paradas SITP,#FDF202
471,Kr 8,CHAPINERO,4.648182,-74.060454,Paradas SITP,#FDF202
472,Br. Ibiza,USAQUEN,4.73498,-74.024194,Paradas SITP,#FDF202
473,Br. Andes Norte,SUBA,4.690382,-74.065833,Paradas SITP,#FDF202
474,Instituto Divino Niño,ENGATIVA,4.700326,-74.130868,Paradas SITP,#FDF202
475,Pq. Empresarial La Cofradía,FONTIBON,4.679187,-74.132023,Paradas SITP,#FDF202
476,Br. Ciudad Techo II,KENNEDY,4.637711,-74.154536,Paradas SITP,#FDF202
477,Hsp. Pablo VI Bosa,BOSA,4.597897,-74.17931,Paradas SITP,#FDF202
478,Estación Alquería,TUNJUELITO,4.594133,-74.13473,Paradas SITP,#FDF202
479,Br. San José Sur,RAFAEL URIBE URIBE,4.575275,-74.101893,Paradas SITP,#FDF202
480,Clínica del Niño,CHAPINERO,4.651562,-74.062045,Paradas SITP,#FDF202
481,Br. Segundo Contador,USAQUEN,4.71382,-74.028921,Paradas SITP,#FDF202
482,Urb. Lagos de Córdoba,SUBA,4.705699,-74.070794,Paradas SITP,#FDF202
483,Urbanización Bolivia Sector Occidental IV - V -VI,ENGATIVA,4.71626,-74.113573,Paradas SITP,#FDF202
484,Br. J.J. Vargas,BARRIOS UNIDOS,4.670612,-74.082652,Paradas SITP,#FDF202
485,Br. San José De Fontibón,FONTIBON,4.684825,-74.134646,Paradas SITP,#FDF202
486,Br. El Rincón de los Ángeles,KENNEDY,4.637271,-74.139569,Paradas SITP,#FDF202
487,Br. Gualoche,BOSA,4.600709,-74.18179,Paradas SITP,#FDF202
488,Portal 20 de Julio,SAN CRISTOBAL,4.563312,-74.097377,Paradas SITP,#FDF202
489,C.C. Hacienda Santa Bárbara,USAQUEN,4.692588,-74.033382,Paradas SITP,#FDF202
490,Avenida Pepe Sierra,SUBA,4.69919,-74.06964,Paradas SITP,#FDF202
491,Humedal Juan Amarillo,SUBA,4.71929,-74.094104,Paradas SITP,#FDF202
492,Urbanización Bolivia Sector Occidental II - III,ENGATIVA,4.71426,-74.114693,Paradas SITP,#FDF202
493,Pq. J.J. Vargas,BARRIOS UNIDOS,4.670184,-74.082373,Paradas SITP,#FDF202
494,Pq. Deportivo Castilla,KENNEDY,4.637522,-74.139349,Paradas SITP,#FDF202
495,Colegio Colombo Japonés,BOSA,4.601023,-74.180856,Paradas SITP,#FDF202
496,Urb. El Claret,TUNJUELITO,4.588184,-74.138094,Paradas SITP,#FDF202
497,Br. Quintas del Sur,CIUDAD BOLIVAR,4.548088,-74.137253,Paradas SITP,#FDF202
498,Br. Santa Ana,USAQUEN,4.689187,-74.034468,Paradas SITP,#FDF202
499,Estación Suba - Calle 100,SUBA,4.690057,-74.065311,Paradas SITP,#FDF202
500,Br. Rincón de Suba,SUBA,4.720293,-74.095314,Paradas SITP,#FDF202
501,Br. Garcés Navas Oriental,ENGATIVA,4.712306,-74.115583,Paradas SITP,#FDF202
502,Pq. Distrital Salitre,BARRIOS UNIDOS,4.661543,-74.087423,Paradas SITP,#FDF202
503,Urb. Parque Afir,FONTIBON,4.686938,-74.133049,Paradas SITP,#FDF202
504,Br. Montes,PUENTE ARANDA,4.613005,-74.112383,Paradas SITP,#FDF202
505,Br. La Amistad Bosa,BOSA,4.603999,-74.183287,Paradas SITP,#FDF202
506,Br. Sotavento,CIUDAD BOLIVAR,4.544482,-74.137689,Paradas SITP,#FDF202
507,Br. Charalá,USME,4.500934,-74.106239,Paradas SITP,#FDF202
508,La Y,SAN CRISTOBAL,4.550336,-74.086461,Paradas SITP,#FDF202
509,Br. Colombia,BARRIOS UNIDOS,4.66224,-74.066179,Paradas SITP,#FDF202
510,Clínica Reina Sofía,USAQUEN,4.705883,-74.050755,Paradas SITP,#FDF202
511,C.C. Puente Largo,SUBA,4.693578,-74.067125,Paradas SITP,#FDF202
512,Br. Lech Walesa,SUBA,4.729069,-74.100929,Paradas SITP,#FDF202
513,IED el Jazmín,PUENTE ARANDA,4.615068,-74.113422,Paradas SITP,#FDF202
514,Br. La Camelia,PUENTE ARANDA,4.608332,-74.118274,Paradas SITP,#FDF202
515,Br. Bosa Las Terrazas,BOSA,4.605182,-74.182384,Paradas SITP,#FDF202
516,Br. Rincón de Venecia,TUNJUELITO,4.592054,-74.145555,Paradas SITP,#FDF202
517,Br. Chapinerito,USME,4.504289,-74.104344,Paradas SITP,#FDF202
518,Pq. Nueva España,SAN CRISTOBAL,4.550993,-74.086313,Paradas SITP,#FDF202
519,Iglesia Siervas de María,BARRIOS UNIDOS,4.66422,-74.068571,Paradas SITP,#FDF202
520,Br. Cedro Narváez,USAQUEN,4.720444,-74.032582,Paradas SITP,#FDF202
521,Br. Gilmar,SUBA,4.743825,-74.065297,Paradas SITP,#FDF202
522,Lech Walesa,SUBA,4.729104,-74.101175,Paradas SITP,#FDF202
523,Estación Tv  86,KENNEDY,4.634321,-74.15276,Paradas SITP,#FDF202
524,Urb. Buenavista,CIUDAD BOLIVAR,4.540679,-74.138152,Paradas SITP,#FDF202
525,Br. Chicó Sur,USME,4.504298,-74.104587,Paradas SITP,#FDF202
526,Bosque de Los Alpes,SAN CRISTOBAL,4.548019,-74.083951,Paradas SITP,#FDF202
527,Br. Chapinero Norte,CHAPINERO,4.651043,-74.063639,Paradas SITP,#FDF202
528,Br. Cedritos,USAQUEN,4.718203,-74.032645,Paradas SITP,#FDF202
529,Colegio Agustiniano Norte,SUBA,4.699559,-74.071392,Paradas SITP,#FDF202
530,C.C. Diver Plaza Álamos,ENGATIVA,4.699273,-74.1155,Paradas SITP,#FDF202
531,Pq. Zonal Atahualpa,FONTIBON,4.688757,-74.144463,Paradas SITP,#FDF202
532,Estación Biblioteca Tintal,KENNEDY,4.638358,-74.155502,Paradas SITP,#FDF202
533,Zona Recreativa La Avenida Bosa,BOSA,4.607054,-74.184676,Paradas SITP,#FDF202
534,Br. La Reforma,USME,4.499101,-74.106869,Paradas SITP,#FDF202
535,Br. María Paz,KENNEDY,4.638689,-74.155752,Paradas SITP,#FDF202
536,C.C. Lourdes,CHAPINERO,4.649207,-74.062529,Paradas SITP,#FDF202
537,Calle 140,USAQUEN,4.718415,-74.032329,Paradas SITP,#FDF202
538,Br. San Nicolás,SUBA,4.699174,-74.073653,Paradas SITP,#FDF202
539,Br. Molinos del Viento,ENGATIVA,4.707538,-74.117972,Paradas SITP,#FDF202
540,Pq. Álamos,ENGATIVA,4.699178,-74.114359,Paradas SITP,#FDF202
541,Br. Las Dos Avenidas,KENNEDY,4.636944,-74.13847,Paradas SITP,#FDF202
542,Colegio Inmaculado Corazón de María,BOSA,4.609812,-74.18628,Paradas SITP,#FDF202
543,Br. Rafael Escamilla,CIUDAD BOLIVAR,4.59414,-74.161919,Paradas SITP,#FDF202
544,Br. El Minuto de María,CIUDAD BOLIVAR,4.534891,-74.141463,Paradas SITP,#FDF202
545,Hsp. San Cristóbal,SAN CRISTOBAL,4.545629,-74.083653,Paradas SITP,#FDF202
546,Estación Calle 63,TEUSAQUILLO,4.649583,-74.065141,Paradas SITP,#FDF202
547,Instituto Pedagógico Nacional,USAQUEN,4.704251,-74.033031,Paradas SITP,#FDF202
548,Br. Pasadena,SUBA,4.689647,-74.062819,Paradas SITP,#FDF202
549,Fundación Clínica Shaio,SUBA,4.698775,-74.074418,Paradas SITP,#FDF202
550,El Madrigal,ENGATIVA,4.705264,-74.110979,Paradas SITP,#FDF202
551,Los Ángeles,ENGATIVA,4.695255,-74.117637,Paradas SITP,#FDF202
552,Br. El Refugio - La Zelfita,FONTIBON,4.691531,-74.14705,Paradas SITP,#FDF202
553,Kr 72A,KENNEDY,4.637107,-74.137979,Paradas SITP,#FDF202
554,Br. La Esperanza de Usme,USME,4.493939,-74.108524,Paradas SITP,#FDF202
555,Kr 15,TEUSAQUILLO,4.640715,-74.067808,Paradas SITP,#FDF202
556,Clínica General de la 100,SUBA,4.689123,-74.062666,Paradas SITP,#FDF202
557,Br. Potosí,SUBA,4.698803,-74.075793,Paradas SITP,#FDF202
558,París,ENGATIVA,4.703928,-74.109491,Paradas SITP,#FDF202
559,Florida Blanca,ENGATIVA,4.694739,-74.116157,Paradas SITP,#FDF202
560,Br. Villa Mayor,ANTONIO NARIÑO,4.591109,-74.126275,Paradas SITP,#FDF202
561,Br. Puerta al Llano Rural,USME,4.493905,-74.108061,Paradas SITP,#FDF202
562,Br. Altamira,SAN CRISTOBAL,4.541247,-74.083733,Paradas SITP,#FDF202
563,Avenida Alberto Lleras Camargo,CHAPINERO,4.63991,-74.06393,Paradas SITP,#FDF202
564,Br. Puente Largo,SUBA,4.692293,-74.062804,Paradas SITP,#FDF202
565,AC 72,ENGATIVA,4.702211,-74.113609,Paradas SITP,#FDF202
566,Brisas Aldea Fontibón,FONTIBON,4.693733,-74.160784,Paradas SITP,#FDF202
567,Av. Centenario,FONTIBON,4.64932,-74.125975,Paradas SITP,#FDF202
568,Br. Villa Mayor Oriental,ANTONIO NARIÑO,4.591402,-74.126287,Paradas SITP,#FDF202
569,Br. Puente Colorado,SAN CRISTOBAL,4.541558,-74.083659,Paradas SITP,#FDF202
570,Comfenalco,CHAPINERO,4.639689,-74.063884,Paradas SITP,#FDF202
571,Urbanización Recodo del Country,USAQUEN,4.708008,-74.032929,Paradas SITP,#FDF202
572,Parroquia Santo Domingo Savio,SUBA,4.693243,-74.062591,Paradas SITP,#FDF202
573,Altos de Chozica,SUBA,4.731358,-74.086716,Paradas SITP,#FDF202
574,Los Álamos Sector Industrial,ENGATIVA,4.693649,-74.118958,Paradas SITP,#FDF202
575,Br. Brisas Aldea Fontibon,FONTIBON,4.69384,-74.160447,Paradas SITP,#FDF202
576,Estación Sevillana,KENNEDY,4.595375,-74.148303,Paradas SITP,#FDF202
577,Br. El Líbano,USME,4.506494,-74.106634,Paradas SITP,#FDF202
578,Quebrada Chiguaza,SAN CRISTOBAL,4.537481,-74.083661,Paradas SITP,#FDF202
579,Br. Ricaurte,LOS MARTIRES,4.604348,-74.094808,Paradas SITP,#FDF202
580,Avenida Calle 147,USAQUEN,4.729159,-74.045299,Paradas SITP,#FDF202
581,IED Villa Elisa,SUBA,4.728512,-74.088329,Paradas SITP,#FDF202
582,Br. El Cortijo,ENGATIVA,4.728289,-74.120295,Paradas SITP,#FDF202
583,Patio Único Particular,ENGATIVA,4.685669,-74.123793,Paradas SITP,#FDF202
584,Estación Banderas,KENNEDY,4.631477,-74.14421,Paradas SITP,#FDF202
585,Br. Patio Bonito II,KENNEDY,4.638137,-74.16567,Paradas SITP,#FDF202
586,Pquia. Inmaculado Corazón de María,RAFAEL URIBE URIBE,4.584525,-74.127576,Paradas SITP,#FDF202
587,Parque Estadio Olaya Herrera,RAFAEL URIBE URIBE,4.583803,-74.10932,Paradas SITP,#FDF202
588,Br. Tenerife,USME,4.505537,-74.114731,Paradas SITP,#FDF202
589,Urb. La Palma I,SUBA,4.728869,-74.088141,Paradas SITP,#FDF202
590,Br. Villa Magdala,USAQUEN,4.737183,-74.04567,Paradas SITP,#FDF202
591,Villa Alcázar,SUBA,4.724628,-74.089068,Paradas SITP,#FDF202
592,Pq. Empresarial Puerta del Sol,ENGATIVA,4.685954,-74.122626,Paradas SITP,#FDF202
593,Estación Mandalay,KENNEDY,4.631186,-74.141047,Paradas SITP,#FDF202
594,Br. Claret,RAFAEL URIBE URIBE,4.582214,-74.126765,Paradas SITP,#FDF202
595,Br. El Virrey,USME,4.505639,-74.114534,Paradas SITP,#FDF202
596,Pq. Los Pinares,SAN CRISTOBAL,4.533949,-74.085075,Paradas SITP,#FDF202
597,Urb. La Manuelita,SUBA,4.723891,-74.089284,Paradas SITP,#FDF202
598,Centro de Abastos del Norte,USAQUEN,4.75707,-74.025164,Paradas SITP,#FDF202
599,Br. Mónaco,SUBA,4.699266,-74.062564,Paradas SITP,#FDF202
600,Br. El Jordán,SUBA,4.720711,-74.089978,Paradas SITP,#FDF202
601,Defensa Civil Santa Helenita,ENGATIVA,4.688386,-74.101875,Paradas SITP,#FDF202
602,La Esperanza Norte,FONTIBON,4.66055,-74.110739,Paradas SITP,#FDF202
603,Estación Mundo Aventura,KENNEDY,4.630501,-74.134246,Paradas SITP,#FDF202
604,Campo Hermoso,KENNEDY,4.642178,-74.163816,Paradas SITP,#FDF202
605,Estación General Santander,PUENTE ARANDA,4.593815,-74.130063,Paradas SITP,#FDF202
606,C.C. La Estrella,RAFAEL URIBE URIBE,4.581447,-74.126261,Paradas SITP,#FDF202
607,IED Rafael Uribe,TUNJUELITO,4.578505,-74.128073,Paradas SITP,#FDF202
608,Br. Monteblanco,USME,4.504006,-74.115404,Paradas SITP,#FDF202
609,Br. El Progreso,LOS MARTIRES,4.600284,-74.089913,Paradas SITP,#FDF202
610,IED El Codito (Codabas),USAQUEN,4.757089,-74.024851,Paradas SITP,#FDF202
611,CAI Villa Luz,ENGATIVA,4.681465,-74.107291,Paradas SITP,#FDF202
612,Los Cambulos,FONTIBON,4.670014,-74.143741,Paradas SITP,#FDF202
613,Estación Marsella,KENNEDY,4.629829,-74.12857,Paradas SITP,#FDF202
614,IED Instituto Técnico Rodrigo de Triana,KENNEDY,4.640449,-74.166156,Paradas SITP,#FDF202
615,Br. Alcalá,PUENTE ARANDA,4.604972,-74.124985,Paradas SITP,#FDF202
616,Cl 58 S,SAN CRISTOBAL,4.531968,-74.086426,Paradas SITP,#FDF202
617,Codabas,USAQUEN,4.756731,-74.02471,Paradas SITP,#FDF202
618,Urb. Altamar,SUBA,4.718343,-74.091138,Paradas SITP,#FDF202
619,IED Friedrich Naumann,USAQUEN,4.758395,-74.025789,Paradas SITP,#FDF202
620,El Rincón,SUBA,4.725113,-74.090995,Paradas SITP,#FDF202
621,Br. Los Álamos Sector Industrial,ENGATIVA,4.691313,-74.11985,Paradas SITP,#FDF202
622,Colegio Militar José Antonio Galán,FONTIBON,4.675352,-74.148066,Paradas SITP,#FDF202
623,Estación Pradera,PUENTE ARANDA,4.628938,-74.118836,Paradas SITP,#FDF202
624,IED Saludcoop Sur,KENNEDY,4.642639,-74.163356,Paradas SITP,#FDF202
625,Parroquia San Cayetano,KENNEDY,4.612775,-74.14103,Paradas SITP,#FDF202
626,Br. El Chircal Sur,CIUDAD BOLIVAR,4.568929,-74.146178,Paradas SITP,#FDF202
627,IED Monteblanco,USME,4.501738,-74.116779,Paradas SITP,#FDF202
628,Br. Los Libertadores,SAN CRISTOBAL,4.532223,-74.086278,Paradas SITP,#FDF202
629,Pq. Tercer Milenio,SANTA FE,4.596456,-74.083614,Paradas SITP,#FDF202
630,Br. Horizontes Norte,USAQUEN,4.758969,-74.025845,Paradas SITP,#FDF202
631,Pq. Público Villa Amalia,ENGATIVA,4.710237,-74.124343,Paradas SITP,#FDF202
632,Portal de Santa Inés,ENGATIVA,4.693814,-74.123021,Paradas SITP,#FDF202
633,FUSM,FONTIBON,4.677378,-74.149699,Paradas SITP,#FDF202
634,Urb. Gecolsa,BOSA,4.597507,-74.162297,Paradas SITP,#FDF202
635,Br. Restrepo,ANTONIO NARIÑO,4.583788,-74.103657,Paradas SITP,#FDF202
636,Br. La Grovana,SAN CRISTOBAL,4.543697,-74.083408,Paradas SITP,#FDF202
637,Gimnasio Las Palmas,USAQUEN,4.763086,-74.027455,Paradas SITP,#FDF202
638,Br. San Andrés Afidro,SUBA,4.749619,-74.107555,Paradas SITP,#FDF202
639,Br. El Dorado Industrial,ENGATIVA,4.722525,-74.122159,Paradas SITP,#FDF202
640,Br. Bonaire,ENGATIVA,4.705411,-74.136733,Paradas SITP,#FDF202
641,Br. Belén Fontibón,FONTIBON,4.677155,-74.149376,Paradas SITP,#FDF202
642,Br. Sierra Morena CL 69F Sur,CIUDAD BOLIVAR,4.580481,-74.165769,Paradas SITP,#FDF202
643,Horizontes Usaquén,USAQUEN,4.762225,-74.027025,Paradas SITP,#FDF202
644,Kr 53A,SUBA,4.716241,-74.060292,Paradas SITP,#FDF202
645,San Andrés Afidro,SUBA,4.749746,-74.109368,Paradas SITP,#FDF202
646,Río Bogotá - Calle 80,ENGATIVA,4.725679,-74.124824,Paradas SITP,#FDF202
647,Colsanitas,FONTIBON,4.649461,-74.10678,Paradas SITP,#FDF202
648,Estación Américas - Cra. 53 A,PUENTE ARANDA,4.627277,-74.109968,Paradas SITP,#FDF202
649,Br. La Paz Bosa,BOSA,4.616236,-74.187781,Paradas SITP,#FDF202
650,Br. Sierra Morena DG 69A Sur,CIUDAD BOLIVAR,4.580503,-74.165601,Paradas SITP,#FDF202
651,Br. Country Sur,RAFAEL URIBE URIBE,4.569242,-74.100679,Paradas SITP,#FDF202
652,Br. Tibabita,USAQUEN,4.765874,-74.027593,Paradas SITP,#FDF202
653,Urb. Iberia Sector III,SUBA,4.716996,-74.066012,Paradas SITP,#FDF202
654,Parques del Campo,SUBA,4.750636,-74.109277,Paradas SITP,#FDF202
655,IED José Asunción Silva,ENGATIVA,4.712728,-74.097976,Paradas SITP,#FDF202
656,Br. Los Laureles,ENGATIVA,4.708236,-74.140513,Paradas SITP,#FDF202
657,Embajada de Los Estados Unidos,TEUSAQUILLO,4.638321,-74.097074,Paradas SITP,#FDF202
658,Br. Gorgonzola,PUENTE ARANDA,4.625787,-74.105075,Paradas SITP,#FDF202
659,Br. El Peñón del Cortijo,CIUDAD BOLIVAR,4.583749,-74.164307,Paradas SITP,#FDF202
660,Br. Puerto Rico,RAFAEL URIBE URIBE,4.56483,-74.107866,Paradas SITP,#FDF202
661,IED Enrique Olaya Herrera,SAN CRISTOBAL,4.569527,-74.100059,Paradas SITP,#FDF202
662,Br. Buenavista,USAQUEN,4.765169,-74.02755,Paradas SITP,#FDF202
663,Br. Las Villas Sector II,SUBA,4.71829,-74.069609,Paradas SITP,#FDF202
664,Conjunto Residencial El Bosque de Suba,SUBA,4.738622,-74.089891,Paradas SITP,#FDF202
665,Plaza de Mercado Quirigua,ENGATIVA,4.713556,-74.097391,Paradas SITP,#FDF202
666,Terminal TUYO,ENGATIVA,4.710741,-74.139747,Paradas SITP,#FDF202
667,C.C. Hayuelos,FONTIBON,4.664343,-74.13164,Paradas SITP,#FDF202
668,Br. El Saucedal,KENNEDY,4.634449,-74.162526,Paradas SITP,#FDF202
669,Br. Bosa Nova,BOSA,4.620009,-74.189329,Paradas SITP,#FDF202
670,Hsp. El Tunal,TUNJUELITO,4.572125,-74.129421,Paradas SITP,#FDF202
671,CAI Lomas,RAFAEL URIBE URIBE,4.564727,-74.108045,Paradas SITP,#FDF202
672,Br. Barcelona Sur,RAFAEL URIBE URIBE,4.56561,-74.103741,Paradas SITP,#FDF202
673,Colegio Ruíz de Alarcón,USAQUEN,4.76787,-74.02772,Paradas SITP,#FDF202
674,Br. La Chucua - La Trinitaria,SUBA,4.739471,-74.092584,Paradas SITP,#FDF202
675,Sidauto,ENGATIVA,4.714972,-74.09577,Paradas SITP,#FDF202
676,Liceo Salomón Sabio,ENGATIVA,4.713021,-74.143313,Paradas SITP,#FDF202
677,Br. Centro Industrial,PUENTE ARANDA,4.644256,-74.111025,Paradas SITP,#FDF202
678,Bavaria,KENNEDY,4.637663,-74.136794,Paradas SITP,#FDF202
679,IEDIT Rodrigo de Triana,KENNEDY,4.640169,-74.167357,Paradas SITP,#FDF202
680,Br. Villa Magda,BOSA,4.62063,-74.189458,Paradas SITP,#FDF202
681,Conjunto Residencial Los Robles I,CIUDAD BOLIVAR,4.580788,-74.161186,Paradas SITP,#FDF202
682,INEM Santiago Pérez,TUNJUELITO,4.575226,-74.130275,Paradas SITP,#FDF202
683,Br. San Luis,RAFAEL URIBE URIBE,4.56565,-74.103882,Paradas SITP,#FDF202
684,Br. Tibabuyes II Sector 2,SUBA,4.741801,-74.098957,Paradas SITP,#FDF202
685,Br. El Minuto de Dios,ENGATIVA,4.701682,-74.09196,Paradas SITP,#FDF202
686,C.C. Muisca,ENGATIVA,4.712376,-74.140728,Paradas SITP,#FDF202
687,Maloka,FONTIBON,4.655201,-74.11016,Paradas SITP,#FDF202
688,Estación Paloquemao,PUENTE ARANDA,4.617777,-74.089175,Paradas SITP,#FDF202
689,Br. San Pablo Bosa,BOSA,4.603404,-74.190208,Paradas SITP,#FDF202
690,Conjunto Residencial Los Robles,CIUDAD BOLIVAR,4.580874,-74.161002,Paradas SITP,#FDF202
691,CAI Tunal,TUNJUELITO,4.577392,-74.131003,Paradas SITP,#FDF202
692,CADE Chicó,CHAPINERO,4.675081,-74.054497,Paradas SITP,#FDF202
693,Museo Francisco de Paula Santander,USAQUEN,4.725077,-74.025281,Paradas SITP,#FDF202
694,Br. Granada Norte,BOSA,4.748125,-74.047951,Paradas SITP,#FDF202
695,Br. Las Flores,SUBA,4.743054,-74.102334,Paradas SITP,#FDF202
696,Br. Autopista Medellín,ENGATIVA,4.701445,-74.092023,Paradas SITP,#FDF202
697,Br. Sabana del Dorado,ENGATIVA,4.709359,-74.142626,Paradas SITP,#FDF202
698,Br. La Esperanza Norte,FONTIBON,4.658131,-74.11209,Paradas SITP,#FDF202
699,Estación Ricaurte,LOS MARTIRES,4.610841,-74.094863,Paradas SITP,#FDF202
700,Br. Remanso,PUENTE ARANDA,4.607144,-74.117676,Paradas SITP,#FDF202
701,Registraduría Auxiliar de Bosa,BOSA,4.602679,-74.191118,Paradas SITP,#FDF202
702,Br. Bravo Paez,RAFAEL URIBE URIBE,4.587986,-74.120413,Paradas SITP,#FDF202
703,Centro Integral José María Córdoba,TUNJUELITO,4.579259,-74.131769,Paradas SITP,#FDF202
704,Br. Callejón Santa Bárbara,RAFAEL URIBE URIBE,4.556873,-74.112166,Paradas SITP,#FDF202
705,Quebrada La Nutria,SAN CRISTOBAL,4.527384,-74.092912,Paradas SITP,#FDF202
706,Br. Hipólito Restrepo,USAQUEN,4.737675,-74.030226,Paradas SITP,#FDF202
707,Br. Tibabuyes II,SUBA,4.743356,-74.103535,Paradas SITP,#FDF202
708,Congreso Eucarístico,ENGATIVA,4.704334,-74.092377,Paradas SITP,#FDF202
709,Pq. Engativá,ENGATIVA,4.71505,-74.142114,Paradas SITP,#FDF202
710,Br. Modelia,FONTIBON,4.663462,-74.117424,Paradas SITP,#FDF202
711,Pl. de Mercado San Pablo I Sector,BOSA,4.605641,-74.187374,Paradas SITP,#FDF202
712,U. Distrital,CIUDAD BOLIVAR,4.57883,-74.156728,Paradas SITP,#FDF202
713,IED Manuel del Socorro,RAFAEL URIBE URIBE,4.578339,-74.124996,Paradas SITP,#FDF202
714,Universidad Distrital,CIUDAD BOLIVAR,4.579833,-74.157239,Paradas SITP,#FDF202
715,Pq. León de Greiff,CHAPINERO,4.669467,-74.054149,Paradas SITP,#FDF202
716,Br. Las Orquídeas,USAQUEN,4.74181,-74.047109,Paradas SITP,#FDF202
717,Unidad Residencial Granada Norte,SUBA,4.749046,-74.052713,Paradas SITP,#FDF202
718,Br. Puerta del Sol,SUBA,4.743916,-74.104633,Paradas SITP,#FDF202
719,Br. París Gaitán,ENGATIVA,4.704901,-74.092476,Paradas SITP,#FDF202
720,Br. La Tortigua,ENGATIVA,4.717571,-74.143259,Paradas SITP,#FDF202
721,Urbanización La Cofradía,FONTIBON,4.67936,-74.131937,Paradas SITP,#FDF202
722,Br. Jorge Gaitán,PUENTE ARANDA,4.603729,-74.112692,Paradas SITP,#FDF202
723,Salón Comunal Bosa San Pablo,BOSA,4.605006,-74.188075,Paradas SITP,#FDF202
724,Pq. Público Villa Mayor,RAFAEL URIBE URIBE,4.587895,-74.126234,Paradas SITP,#FDF202
725,Quiroga Sur,RAFAEL URIBE URIBE,4.576038,-74.12402,Paradas SITP,#FDF202
726,Br. La Belleza,SAN CRISTOBAL,4.529539,-74.09178,Paradas SITP,#FDF202
727,Br. Estrella del Norte,USAQUEN,4.740022,-74.040344,Paradas SITP,#FDF202
728,Br. Britalia - El Tibon Albacete,SUBA,4.748765,-74.051866,Paradas SITP,#FDF202
729,Parroquia San Fernando Rey,BARRIOS UNIDOS,4.671836,-74.078568,Paradas SITP,#FDF202
730,Col. Tomas Alva Edison,ENGATIVA,4.717452,-74.143157,Paradas SITP,#FDF202
731,Br. La Cabaña,FONTIBON,4.682654,-74.136297,Paradas SITP,#FDF202
732,Br. Villa Alsacia,FONTIBON,4.64599,-74.124625,Paradas SITP,#FDF202
733,CED Los Andes,BOSA,4.607636,-74.185618,Paradas SITP,#FDF202
734,Parroquia Santa Lucía,RAFAEL URIBE URIBE,4.576031,-74.124155,Paradas SITP,#FDF202
735,Br. Puerta al Llano,USME,4.486252,-74.103477,Paradas SITP,#FDF202
736,Estación Cl 85,CHAPINERO,4.671913,-74.058837,Paradas SITP,#FDF202
737,Br. San Cristóbal Norte,USAQUEN,4.736966,-74.027566,Paradas SITP,#FDF202
738,Br. Britalia,BOSA,4.74937,-74.055605,Paradas SITP,#FDF202
739,CAI La Gaitana,SUBA,4.745042,-74.107319,Paradas SITP,#FDF202
740,Br. San Fernando,BARRIOS UNIDOS,4.66959,-74.075928,Paradas SITP,#FDF202
741,Br. Bavaria,KENNEDY,4.639843,-74.136894,Paradas SITP,#FDF202
742,Colegio Nuestra Señora de Nazareth,BOSA,4.607692,-74.185714,Paradas SITP,#FDF202
743,Br. El Ensueño (Br. Atlanta),CIUDAD BOLIVAR,4.580897,-74.155662,Paradas SITP,#FDF202
744,Br. Brisas del Llano,USME,4.486609,-74.1053,Paradas SITP,#FDF202
745,Pq. Los Libertadores,SAN CRISTOBAL,4.532208,-74.090681,Paradas SITP,#FDF202
746,Br. Atlanta,CIUDAD BOLIVAR,4.581044,-74.154832,Paradas SITP,#FDF202
747,Br. Sucre,CHAPINERO,4.631692,-74.065395,Paradas SITP,#FDF202
748,Br. Tibabuyes Universal,SUBA,4.745449,-74.108752,Paradas SITP,#FDF202
749,Av. José Celestino Mutis,ENGATIVA,4.67831,-74.109697,Paradas SITP,#FDF202
750,CIAC,FONTIBON,4.689758,-74.131962,Paradas SITP,#FDF202
751,CAI Santa Matilde,PUENTE ARANDA,4.600641,-74.109604,Paradas SITP,#FDF202
752,Cementerio Jardines del Apogeo,BOSA,4.596632,-74.172734,Paradas SITP,#FDF202
753,Br. Santa Teresita,TEUSAQUILLO,4.632761,-74.069583,Paradas SITP,#FDF202
754,Colegio Alfonso Jaramillo,BOSA,4.749843,-74.059768,Paradas SITP,#FDF202
755,IED Tibabuyes  Universal,SUBA,4.746386,-74.111935,Paradas SITP,#FDF202
756,Br. Acevedo Tejada,TEUSAQUILLO,4.629849,-74.080251,Paradas SITP,#FDF202
757,Br. Villemar,FONTIBON,4.672295,-74.136913,Paradas SITP,#FDF202
758,Br. Castilla,KENNEDY,4.637666,-74.141989,Paradas SITP,#FDF202
759,Br. Santa Matilde II Sector,PUENTE ARANDA,4.600752,-74.109481,Paradas SITP,#FDF202
760,Monasterio de la Visitación,BOSA,4.608789,-74.185585,Paradas SITP,#FDF202
761,SENA - NQS,ANTONIO NARIÑO,4.595139,-74.112757,Paradas SITP,#FDF202
762,Estación Biblioteca,TUNJUELITO,4.570682,-74.130045,Paradas SITP,#FDF202
763,CED. Los Libertadores,SAN CRISTOBAL,4.534298,-74.090658,Paradas SITP,#FDF202
764,Parroquia San Carlos Borromeo,ENGATIVA,4.679459,-74.109572,Paradas SITP,#FDF202
765,Subestación Eléctrica de Fontibón,FONTIBON,4.671899,-74.136091,Paradas SITP,#FDF202
766,Br. Santa Matilde,PUENTE ARANDA,4.599214,-74.107829,Paradas SITP,#FDF202
767,Estación NQS - Calle 30 Sur,PUENTE ARANDA,4.594988,-74.117864,Paradas SITP,#FDF202
768,Br. Santander,ANTONIO NARIÑO,4.593065,-74.111556,Paradas SITP,#FDF202
769,Br. San Juan Bautista,USME,4.514457,-74.121388,Paradas SITP,#FDF202
770,CED Los Libertadores,SAN CRISTOBAL,4.53441,-74.090734,Paradas SITP,#FDF202
771,Br. Palermo,TEUSAQUILLO,4.633625,-74.073318,Paradas SITP,#FDF202
772,Las Orquídeas,USAQUEN,4.740699,-74.04247,Paradas SITP,#FDF202
773,Parque El Poa,SUBA,4.744599,-74.097066,Paradas SITP,#FDF202
774,Br. Santa María,ENGATIVA,4.696603,-74.091918,Paradas SITP,#FDF202
775,Parque Empresarial El Dorado,ENGATIVA,4.688059,-74.117869,Paradas SITP,#FDF202
776,Centro Fontibón,FONTIBON,4.675786,-74.140388,Paradas SITP,#FDF202
777,Br. Pio XII,KENNEDY,4.633086,-74.147851,Paradas SITP,#FDF202
778,Br. Villa del Rosario,PUENTE ARANDA,4.594191,-74.122039,Paradas SITP,#FDF202
779,Estación Restrepo,ANTONIO NARIÑO,4.581031,-74.101934,Paradas SITP,#FDF202
780,Br. El Pinar,SAN CRISTOBAL,4.537849,-74.091238,Paradas SITP,#FDF202
781,U. Nacional,TEUSAQUILLO,4.634335,-74.07783,Paradas SITP,#FDF202
782,Br. San Cayetano,SUBA,4.724644,-74.098777,Paradas SITP,#FDF202
783,Los Álamos,ENGATIVA,4.689682,-74.119167,Paradas SITP,#FDF202
784,Br. El Refugio La Zelfita,FONTIBON,4.678252,-74.142685,Paradas SITP,#FDF202
785,Br. Villa de los Comuneros,BOSA,4.634346,-74.180686,Paradas SITP,#FDF202
786,IED El Libertador Sede C,RAFAEL URIBE URIBE,4.588579,-74.112399,Paradas SITP,#FDF202
787,Estación Parque,TUNJUELITO,4.569343,-74.133462,Paradas SITP,#FDF202
788,Br. Santa Rita Sur Oriental,SAN CRISTOBAL,4.538032,-74.091293,Paradas SITP,#FDF202
789,Villa de los Comuneros,BOSA,4.634751,-74.179222,Paradas SITP,#FDF202
790,Estación NQS - Calle 75,BARRIOS UNIDOS,4.671011,-74.070953,Paradas SITP,#FDF202
791,PINAR DE LOS Álamos II,ENGATIVA,4.69011,-74.109729,Paradas SITP,#FDF202
792,IED Costa Rica,FONTIBON,4.675746,-74.139909,Paradas SITP,#FDF202
793,Gorgonzola,PUENTE ARANDA,4.620629,-74.104669,Paradas SITP,#FDF202
794,Br. Nueva Gloria,SAN CRISTOBAL,4.54018,-74.0912,Paradas SITP,#FDF202
795,Br. Antiguo Country,CHAPINERO,4.670646,-74.056852,Paradas SITP,#FDF202
796,Br. Barrancas Norte,USAQUEN,4.736379,-74.025263,Paradas SITP,#FDF202
797,Br. Santa Helenita,ENGATIVA,4.689315,-74.108263,Paradas SITP,#FDF202
798,Br. La Giralda,FONTIBON,4.677993,-74.142117,Paradas SITP,#FDF202
799,Cementerio del Sur,ANTONIO NARIÑO,4.588626,-74.116989,Paradas SITP,#FDF202
800,Br. Ciudad Jardín Sur,ANTONIO NARIÑO,4.580053,-74.100482,Paradas SITP,#FDF202
801,Br. La Gloria,SAN CRISTOBAL,4.540439,-74.090482,Paradas SITP,#FDF202
802,Br. Los Caobos,USAQUEN,4.729598,-74.045765,Paradas SITP,#FDF202
803,Urb. La Colina Campestre II Sector,SUBA,4.727362,-74.064635,Paradas SITP,#FDF202
804,El Ejido,PUENTE ARANDA,4.624614,-74.101106,Paradas SITP,#FDF202
805,Desarrollo Holanda II Sector,BOSA,4.63165,-74.187765,Paradas SITP,#FDF202
806,IED Francisco de Paula Santander Sede A,ANTONIO NARIÑO,4.588883,-74.111121,Paradas SITP,#FDF202
807,IED San Benito Abad,TUNJUELITO,4.567377,-74.133009,Paradas SITP,#FDF202
808,Pq. Nueva Gloria,SAN CRISTOBAL,4.54038,-74.088003,Paradas SITP,#FDF202
809,Estación Calle 45,CHAPINERO,4.632543,-74.068351,Paradas SITP,#FDF202
810,Br. Las Margaritas I Sector,USAQUEN,4.729756,-74.044768,Paradas SITP,#FDF202
811,Br. Santa Helena,SUBA,4.732344,-74.062893,Paradas SITP,#FDF202
812,Club Los Lagartos,SUBA,4.696918,-74.084424,Paradas SITP,#FDF202
813,Br. Portal del Mortiño,ENGATIVA,4.716895,-74.117447,Paradas SITP,#FDF202
825,Br. Villa Luz,ENGATIVA,4.68607,-74.105413,Paradas SITP,#FDF202
830,Br. Versalles Fontibón,FONTIBON,4.684175,-74.14736,Paradas SITP,#FDF202
831,Br. Ronda,CIUDAD BOLIVAR,4.566748,-74.143425,Paradas SITP,#FDF202
832,Urb. Contador Norte,USAQUEN,4.713793,-74.032454,Paradas SITP,#FDF202
833,Pq. Central Pontevedra,SUBA,4.697874,-74.082112,Paradas SITP,#FDF202
834,Estación Ciudad Universitaria,TEUSAQUILLO,4.629676,-74.083804,Paradas SITP,#FDF202
835,Br. El Regalo II Sector,BOSA,4.629867,-74.192365,Paradas SITP,#FDF202
836,Br. Alquería La Fragua,KENNEDY,4.599147,-74.135759,Paradas SITP,#FDF202
837,Br. Country Comodoro,USAQUEN,4.71146,-74.032825,Paradas SITP,#FDF202
838,Urb. La Riviera Norte,SUBA,4.735164,-74.051552,Paradas SITP,#FDF202
839,Br. Villa Elisa,SUBA,4.731012,-74.086991,Paradas SITP,#FDF202
840,Br. Bolivia Occidental,ENGATIVA,4.715233,-74.116301,Paradas SITP,#FDF202
841,Parroquia Jesús Amor Misericordioso,KENNEDY,4.638914,-74.141463,Paradas SITP,#FDF202
842,Br. Trebolis El Porvenir,BOSA,4.639896,-74.184099,Paradas SITP,#FDF202
848,Centro Comercial Mazurén,SUBA,4.734664,-74.049898,Paradas SITP,#FDF202
851,Estación Suba - Tv.  91,SUBA,4.737095,-74.084937,Paradas SITP,#FDF202
854,Pq. Acevedo Tejada,TEUSAQUILLO,4.630993,-74.081364,Paradas SITP,#FDF202
855,Br. Osorio X,BOSA,4.639855,-74.183993,Paradas SITP,#FDF202
856,Br. La Hortúa,ANTONIO NARIÑO,4.59067,-74.087249,Paradas SITP,#FDF202
857,Br. Santa Isabel Sur,LOS MARTIRES,4.59657,-74.104584,Paradas SITP,#FDF202
858,Urbanización Nueva Autopista,USAQUEN,4.72295,-74.045258,Paradas SITP,#FDF202
859,Portal del Norte,SUBA,4.755493,-74.046341,Paradas SITP,#FDF202
861,Br. Normandía Occidental,ENGATIVA,4.674482,-74.108941,Paradas SITP,#FDF202
862,C.C. Baleares,FONTIBON,4.66464,-74.12898,Paradas SITP,#FDF202
863,Br. Parcela El Porvenir,BOSA,4.638732,-74.186409,Paradas SITP,#FDF202
865,Br. El Tejar,PUENTE ARANDA,4.606535,-74.130427,Paradas SITP,#FDF202
866,Br. Venecia Occidental,TUNJUELITO,4.587655,-74.144439,Paradas SITP,#FDF202
870,Br.  San Francisco I Sector,CIUDAD BOLIVAR,4.563777,-74.142458,Paradas SITP,#FDF202
872,Concejo De Bogotá,TEUSAQUILLO,4.624454,-74.077539,Paradas SITP,#FDF202
873,Parque Contador,USAQUEN,4.722167,-74.043414,Paradas SITP,#FDF202
874,Br. Nueva Zelandia,SUBA,4.757826,-74.045917,Paradas SITP,#FDF202
875,Br. El Tintal Central,FONTIBON,4.668971,-74.13382,Paradas SITP,#FDF202
876,Br.  Las Acacias,CIUDAD BOLIVAR,4.563853,-74.1424,Paradas SITP,#FDF202
877,Br. Tenerife II Sector,USME,4.510178,-74.119227,Paradas SITP,#FDF202
878,INPEC,TEUSAQUILLO,4.624325,-74.07762,Paradas SITP,#FDF202
879,Agrupación el Palomar,USAQUEN,4.721051,-74.0404,Paradas SITP,#FDF202
880,C. C.  Santafé,SUBA,4.76441,-74.044702,Paradas SITP,#FDF202
881,Villa Amalia,ENGATIVA,4.712317,-74.12593,Paradas SITP,#FDF202
882,Servisalud Capellanía,FONTIBON,4.668952,-74.134421,Paradas SITP,#FDF202
886,Estación CAD,PUENTE ARANDA,4.624574,-74.083632,Paradas SITP,#FDF202
887,Hogar hospitalario San José (Br. Carvajal),KENNEDY,4.613409,-74.140488,Paradas SITP,#FDF202
888,Br. Marichuela,USME,4.510431,-74.118585,Paradas SITP,#FDF202
889,Br. La Gloria Oriental,SAN CRISTOBAL,4.54643,-74.09185,Paradas SITP,#FDF202
890,Br. Carvajal,KENNEDY,4.612989,-74.140546,Paradas SITP,#FDF202
891,CONACED,TEUSAQUILLO,4.624181,-74.075948,Paradas SITP,#FDF202
892,urbanización Cedritos,USAQUEN,4.721149,-74.040954,Paradas SITP,#FDF202
893,Br. Portales del Norte,BOSA,4.749619,-74.059239,Paradas SITP,#FDF202
894,Br. La Gaitana,SUBA,4.744784,-74.108885,Paradas SITP,#FDF202
895,Cl 72 C,ENGATIVA,4.712641,-74.125869,Paradas SITP,#FDF202
896,Br. Atahualpa,FONTIBON,4.680063,-74.144441,Paradas SITP,#FDF202
897,Usme Rural,USME,4.468373,-74.128385,Paradas SITP,#FDF202
900,Urbanización La Victoria,TEUSAQUILLO,4.623972,-74.075606,Paradas SITP,#FDF202
901,Centro Comercial Futuro 140,USAQUEN,4.719037,-74.035613,Paradas SITP,#FDF202
902,Urb. La Colina Campestre V Sector,SUBA,4.72336,-74.06663,Paradas SITP,#FDF202
903,Br. La Toscana,SUBA,4.743084,-74.111397,Paradas SITP,#FDF202
905,Salón Comunal La Perla,ENGATIVA,4.713726,-74.126343,Paradas SITP,#FDF202
907,Br. Techo,KENNEDY,4.626118,-74.146941,Paradas SITP,#FDF202
908,Br. Nueva York,KENNEDY,4.605248,-74.142247,Paradas SITP,#FDF202
909,Colegio San José de Cafasso (Br. Fátima),TUNJUELITO,4.585344,-74.134817,Paradas SITP,#FDF202
911,Br. La Fiscala,CIUDAD BOLIVAR,4.53227,-74.127532,Paradas SITP,#FDF202
912,Br. Teusaquillo,TEUSAQUILLO,4.622984,-74.070052,Paradas SITP,#FDF202
913,Clínica Norte,USAQUEN,4.71996,-74.038071,Paradas SITP,#FDF202
916,Auto Norte,SUBA,4.707334,-74.056043,Paradas SITP,#FDF202
917,KR 111C,ENGATIVA,4.713671,-74.126176,Paradas SITP,#FDF202
918,Br. Mandalay,KENNEDY,4.630636,-74.143102,Paradas SITP,#FDF202
920,Parroquia San Andrés,KENNEDY,4.598119,-74.144867,Paradas SITP,#FDF202
921,Br. Balmoral,CIUDAD BOLIVAR,4.590689,-74.161556,Paradas SITP,#FDF202
922,Cementerio Parque Serafín,CIUDAD BOLIVAR,4.532465,-74.127059,Paradas SITP,#FDF202
923,Usme Centro,USME,4.46954,-74.126963,Paradas SITP,#FDF202
924,Plaza 20 de Julio,SAN CRISTOBAL,4.570923,-74.093069,Paradas SITP,#FDF202
925,Br. Samper,SANTA FE,4.622268,-74.068806,Paradas SITP,#FDF202
926,Agrupación Verbenal,USAQUEN,4.717526,-74.031985,Paradas SITP,#FDF202
927,Br. Estoril,SUBA,4.687826,-74.060154,Paradas SITP,#FDF202
928,CED La Toscana,SUBA,4.743637,-74.11423,Paradas SITP,#FDF202
929,Br. Ferrocaja,FONTIBON,4.679664,-74.133364,Paradas SITP,#FDF202
936,Avenida Alsacia,KENNEDY,4.643928,-74.133068,Paradas SITP,#FDF202
937,Br. San Jorge Central,PUENTE ARANDA,4.597207,-74.11456,Paradas SITP,#FDF202
938,Br. San Vicente Ferrer,TUNJUELITO,4.581413,-74.142512,Paradas SITP,#FDF202
939,Centro Usme,USME,4.469735,-74.126339,Paradas SITP,#FDF202
940,Centro Comercial Bazar 20 de Julio,SAN CRISTOBAL,4.558616,-74.09864,Paradas SITP,#FDF202
941,Centro de Negocios Chicó Plaza,CHAPINERO,4.683708,-74.048381,Paradas SITP,#FDF202
943,Cl 74B,ENGATIVA,4.715099,-74.125204,Paradas SITP,#FDF202
945,AC 13,PUENTE ARANDA,4.63679,-74.118615,Paradas SITP,#FDF202
946,Río Fucha,PUENTE ARANDA,4.599467,-74.117116,Paradas SITP,#FDF202
948,Plaza Central de Usme,USME,4.471656,-74.124188,Paradas SITP,#FDF202
949,Br. Calima,SAN CRISTOBAL,4.57359,-74.093766,Paradas SITP,#FDF202
952,Sede Comunal 11 de Noviembre,BARRIOS UNIDOS,4.666477,-74.071577,Paradas SITP,#FDF202
953,Centro Comercial Palatino,USAQUEN,4.716482,-74.029794,Paradas SITP,#FDF202
954,Pq. Empresarial El Dorado,ENGATIVA,4.688084,-74.119154,Paradas SITP,#FDF202
955,Br. Villa Mayor Antigua,ANTONIO NARIÑO,4.593648,-74.122904,Paradas SITP,#FDF202
956,Br. La Alameda,SANTA FE,4.609007,-74.074573,Paradas SITP,#FDF202
957,Santa Teresa,USAQUEN,4.741354,-74.023762,Paradas SITP,#FDF202
958,CAI Villas de Granada,ENGATIVA,4.717269,-74.122542,Paradas SITP,#FDF202
959,Urbanización Brisas,FONTIBON,4.696974,-74.155783,Paradas SITP,#FDF202
960,Colegio Nicolás Esguerra,KENNEDY,4.630889,-74.12181,Paradas SITP,#FDF202
961,Br. Brasil II Sector,BOSA,4.631641,-74.178819,Paradas SITP,#FDF202
962,Br. Tejar,PUENTE ARANDA,4.606833,-74.126811,Paradas SITP,#FDF202
966,Calle 50 Sur,TUNJUELITO,4.578926,-74.13453,Paradas SITP,#FDF202
967,San Cristóbal Norte 2,USAQUEN,4.741131,-74.023057,Paradas SITP,#FDF202
968,Br. Brisas Aldea Fontibón,FONTIBON,4.696896,-74.155727,Paradas SITP,#FDF202
969,Avenida Américas,KENNEDY,4.627215,-74.123327,Paradas SITP,#FDF202
971,Br. Provivienda,KENNEDY,4.61308,-74.134833,Paradas SITP,#FDF202
972,Colegio Marco Fidel Suarez,TUNJUELITO,4.577918,-74.137623,Paradas SITP,#FDF202
973,Centro Usme - La Esperanza,USME,4.473036,-74.122475,Paradas SITP,#FDF202
975,Hsp San Blas,SAN CRISTOBAL,4.57031,-74.083428,Paradas SITP,#FDF202
976,AV. Américas,KENNEDY,4.627729,-74.123138,Paradas SITP,#FDF202
977,Br. Chapinero Central,CHAPINERO,4.644222,-74.064463,Paradas SITP,#FDF202
979,Br Granada Norte,BOSA,4.752178,-74.050116,Paradas SITP,#FDF202
981,Tuna Baja III y IIIA,SUBA,4.755269,-74.092807,Paradas SITP,#FDF202
982,Parque Industrial de Occidente,FONTIBON,4.695651,-74.157793,Paradas SITP,#FDF202
983,Br. La Igualdad,KENNEDY,4.622097,-74.125185,Paradas SITP,#FDF202
984,Br. El Porvenir Parcela 33,BOSA,4.630982,-74.180314,Paradas SITP,#FDF202
985,Floralia,KENNEDY,4.610604,-74.131423,Paradas SITP,#FDF202
987,Br. Centro Usme,USME,4.476739,-74.122414,Paradas SITP,#FDF202
988,IED Manuelita Sáenz,SAN CRISTOBAL,4.570263,-74.084094,Paradas SITP,#FDF202
989,Gimnasio Campestre,USAQUEN,4.741702,-74.026026,Paradas SITP,#FDF202
990,Club Campestre Cafam,SUBA,4.791159,-74.040197,Paradas SITP,#FDF202
991,Desarrollo Los Monarcas,SUBA,4.757559,-74.092129,Paradas SITP,#FDF202
993,Carrera 112C,ENGATIVA,4.719946,-74.121731,Paradas SITP,#FDF202
994,Desarrollo Brasilia I Sector,BOSA,4.630391,-74.181438,Paradas SITP,#FDF202
995,Carvajal,KENNEDY,4.615172,-74.136577,Paradas SITP,#FDF202
997,Br. Santa Viviana,CIUDAD BOLIVAR,4.576964,-74.17643,Paradas SITP,#FDF202
998,Central de mezclas,CIUDAD BOLIVAR,4.546874,-74.136649,Paradas SITP,#FDF202
999,Br. Centro Usme Urbano,USME,4.476557,-74.122323,Paradas SITP,#FDF202
1000,Br. Concepción Norte,BARRIOS UNIDOS,4.659398,-74.063754,Paradas SITP,#FDF202
1001,Urb. Tejares del Norte,SUBA,4.762105,-74.048409,Paradas SITP,#FDF202
1002,Desarrollo Villa Esperanza,SUBA,4.757649,-74.092016,Paradas SITP,#FDF202
1003,Br. Villas de Granada,ENGATIVA,4.719809,-74.12126,Paradas SITP,#FDF202
1005,Avenida Calle 3,PUENTE ARANDA,4.624807,-74.123909,Paradas SITP,#FDF202
1006,Br. Holanda I Sector,BOSA,4.628235,-74.186255,Paradas SITP,#FDF202
1008,Salón Comunal Restrepo,ANTONIO NARIÑO,4.59361,-74.104315,Paradas SITP,#FDF202
1009,Cementerio Jardines del Recuerdo,SUBA,4.776809,-74.042618,Paradas SITP,#FDF202
1010,Clínica Juan N. Corpas,SUBA,4.761,-74.092319,Paradas SITP,#FDF202
1012,Estación U. Nacional,TEUSAQUILLO,4.634799,-74.079762,Paradas SITP,#FDF202
1014,IED Antonio Van Uden Sede B,FONTIBON,4.692999,-74.161541,Paradas SITP,#FDF202
1015,Br. Class,KENNEDY,4.612244,-74.177368,Paradas SITP,#FDF202
1016,Br. La Unión Divino Niño,CIUDAD BOLIVAR,4.575419,-74.17072,Paradas SITP,#FDF202
1017,Br. La Requilina,USME,4.479751,-74.12119,Paradas SITP,#FDF202
1018,Br. Sociego,SAN CRISTOBAL,4.573872,-74.092511,Paradas SITP,#FDF202
1019,Iglesia Divino Salvador,TEUSAQUILLO,4.645568,-74.068428,Paradas SITP,#FDF202
1020,Club Campestre el Rancho,SUBA,4.772377,-74.043375,Paradas SITP,#FDF202
1021,Estación EL Campín,TEUSAQUILLO,4.644856,-74.079172,Paradas SITP,#FDF202
1022,Br. Ciudad Salitre Nororiental,TEUSAQUILLO,4.646826,-74.100996,Paradas SITP,#FDF202
1023,Desarrollo Villa Colombia II Sector,BOSA,4.627032,-74.189039,Paradas SITP,#FDF202
1024,Urb. Clarelandia del Sur,BOSA,4.610149,-74.179765,Paradas SITP,#FDF202
1025,Fundación Baruc,CIUDAD BOLIVAR,4.575414,-74.170476,Paradas SITP,#FDF202
1028,Campo deportivo el Centenario,RAFAEL URIBE URIBE,4.584818,-74.105689,Paradas SITP,#FDF202
1029,El pedregal-La Lira,USME,4.48321,-74.120762,Paradas SITP,#FDF202
1030,Carrera 6,SAN CRISTOBAL,4.573066,-74.092165,Paradas SITP,#FDF202
1031,C.C. Bazar 20 de Julio,SAN CRISTOBAL,4.573342,-74.092385,Paradas SITP,#FDF202
1033,Calle 51 (Br. Quesada),TEUSAQUILLO,4.638671,-74.069655,Paradas SITP,#FDF202
1034,Carrera 16A,USAQUEN,4.742394,-74.038557,Paradas SITP,#FDF202
1035,Escuela Colombiana de Ingeniería,SUBA,4.783711,-74.0415,Paradas SITP,#FDF202
1036,Br. Potrerillo,SUBA,4.737617,-74.099501,Paradas SITP,#FDF202
1037,C.C. Metrópolis,BARRIOS UNIDOS,4.681091,-74.082309,Paradas SITP,#FDF202
1038,Estación Simón Bolívar,BARRIOS UNIDOS,4.658333,-74.078067,Paradas SITP,#FDF202
1040,Br. Danubio II y III Sector,BOSA,4.62685,-74.189296,Paradas SITP,#FDF202
1047,Hsp. Occidente de Kennedy,KENNEDY,4.616877,-74.153301,Paradas SITP,#FDF202
1049,Carrera  5A,SAN CRISTOBAL,4.572018,-74.090778,Paradas SITP,#FDF202
1050,Br. Quesada,TEUSAQUILLO,4.638265,-74.069733,Paradas SITP,#FDF202
1051,Parque Comercial Bima,SUBA,4.806507,-74.037711,Paradas SITP,#FDF202
1052,Br. Puerta de Teja,FONTIBON,4.683949,-74.12531,Paradas SITP,#FDF202
1053,Cooperativa de Sub-Oficiales,KENNEDY,4.636478,-74.136735,Paradas SITP,#FDF202
1057,Br. La Magnolia II,BOSA,4.626246,-74.19107,Paradas SITP,#FDF202
1058,KR 9,CHAPINERO,4.657332,-74.055968,Paradas SITP,#FDF202
1059,Uniagraria,SUBA,4.752843,-74.051068,Paradas SITP,#FDF202
1064,Turingia II,SUBA,4.751176,-74.093673,Paradas SITP,#FDF202
1065,Éxito Calle 80,ENGATIVA,4.683171,-74.080286,Paradas SITP,#FDF202
1066,Pq. Empresarial Normandía,ENGATIVA,4.679548,-74.1093,Paradas SITP,#FDF202
1067,Desarrollo La Magnolia II,BOSA,4.626144,-74.19112,Paradas SITP,#FDF202
1068,Alcaldía Local San Cristóbal,SAN CRISTOBAL,4.569386,-74.086834,Paradas SITP,#FDF202
1069,Gimnasio Moderno,CHAPINERO,4.660298,-74.054005,Paradas SITP,#FDF202
1071,Br. Pinos de Lombardía,SUBA,4.755057,-74.09674,Paradas SITP,#FDF202
1072,Makro Calle 80,ENGATIVA,4.696265,-74.087027,Paradas SITP,#FDF202
1073,Industria Nacional de Gaseosas,FONTIBON,4.681134,-74.127345,Paradas SITP,#FDF202
1074,CADE Kennedy,KENNEDY,4.623301,-74.153891,Paradas SITP,#FDF202
1075,Estación de Bomberos del Sur,ANTONIO NARIÑO,4.590007,-74.10809,Paradas SITP,#FDF202
1076,Villa Anita Usme,USME,4.490894,-74.119134,Paradas SITP,#FDF202
1078,Alcaldía Local de San Cristóbal,SAN CRISTOBAL,4.569906,-74.087307,Paradas SITP,#FDF202
1080,Br. Villa Anita Usme,USME,4.492578,-74.118834,Paradas SITP,#FDF202
1083,IV Estación de Policía San Cristóbal,SAN CRISTOBAL,4.569615,-74.086849,Paradas SITP,#FDF202
1084,Br. El Nogal,CHAPINERO,4.662252,-74.05273,Paradas SITP,#FDF202
1085,Instituto Educación y Vida,SUBA,4.750984,-74.085089,Paradas SITP,#FDF202
1086,Br. Ciudad Kennedy Supermanzana 7,KENNEDY,4.622961,-74.150107,Paradas SITP,#FDF202
1087,Br. Barlovento,CIUDAD BOLIVAR,4.589638,-74.167723,Paradas SITP,#FDF202
1088,Br. Santiago Pérez,RAFAEL URIBE URIBE,4.588192,-74.108357,Paradas SITP,#FDF202
1089,Br. Villa Diana,USME,4.501509,-74.086236,Paradas SITP,#FDF202
1090,Calle 35A Sur (Br. Ciudad Kennedy Supermanzana 7),KENNEDY,4.623588,-74.14954,Paradas SITP,#FDF202
1094,CAI Samper Mendoza,LOS MARTIRES,4.618164,-74.07825,Paradas SITP,#FDF202
1095,IED Tabora Sede B,ENGATIVA,4.689984,-74.093366,Paradas SITP,#FDF202
1097,CAN,TEUSAQUILLO,4.649671,-74.094945,Paradas SITP,#FDF202
1098,Urb. Villas del Pinar,FONTIBON,4.673265,-74.126222,Paradas SITP,#FDF202
1099,Avenida Fucha,PUENTE ARANDA,4.608006,-74.118172,Paradas SITP,#FDF202
1100,Bosque El Limonar,USME,4.494659,-74.118668,Paradas SITP,#FDF202
1101,Br. Tihuaque,USME,4.501306,-74.086037,Paradas SITP,#FDF202
1102,Éxito Colina,SUBA,4.73334,-74.066951,Paradas SITP,#FDF202
1103,Avenida Chile,ENGATIVA,4.687571,-74.09504,Paradas SITP,#FDF202
1104,Primavera Norte,PUENTE ARANDA,4.619322,-74.106254,Paradas SITP,#FDF202
1106,CRAC,PUENTE ARANDA,4.599109,-74.107966,Paradas SITP,#FDF202
1109,Centro Médico Cruz Blanca,ANTONIO NARIÑO,4.585365,-74.105745,Paradas SITP,#FDF202
1110,Cl 82 S,USME,4.505271,-74.088515,Paradas SITP,#FDF202
1111,Br. Japón,SUBA,4.720919,-74.093859,Paradas SITP,#FDF202
1112,Br. Santa Fe,LOS MARTIRES,4.61352,-74.075318,Paradas SITP,#FDF202
1114,Br. Casablanca,SUBA,4.740514,-74.065288,Paradas SITP,#FDF202
1115,Conjunto Residencial Florencia,ENGATIVA,4.700333,-74.103255,Paradas SITP,#FDF202
1116,Br. Franco,FONTIBON,4.647038,-74.124807,Paradas SITP,#FDF202
1117,Br. Santa Isabel Occidental,PUENTE ARANDA,4.601179,-74.103605,Paradas SITP,#FDF202
1118,Br. Sierra Morena III Sector,CIUDAD BOLIVAR,4.577236,-74.169032,Paradas SITP,#FDF202
1120,Br. San Pedro S,USME,4.505188,-74.088219,Paradas SITP,#FDF202
1121,C.C. Terraza Pasteur,SANTA FE,4.609356,-74.069147,Paradas SITP,#FDF202
1122,Br. Los Cedros,USAQUEN,4.72666,-74.041483,Paradas SITP,#FDF202
1125,El Rincón Norte,SUBA,4.728094,-74.090038,Paradas SITP,#FDF202
1126,Unidad Médica Emaús Hospital Engativá,ENGATIVA,4.714537,-74.141993,Paradas SITP,#FDF202
1128,San Andresito de la 38,PUENTE ARANDA,4.613237,-74.104085,Paradas SITP,#FDF202
1132,IED OEA Sede B,KENNEDY,4.609373,-74.141095,Paradas SITP,#FDF202
1133,Br. Sierra Morena Tv 73H,CIUDAD BOLIVAR,4.579078,-74.169948,Paradas SITP,#FDF202
1134,Br. Brazuelos,USME,4.498265,-74.118084,Paradas SITP,#FDF202
1135,Br. El Rincón Norte,SUBA,4.728298,-74.090394,Paradas SITP,#FDF202
1136,Estación Calle 22,SANTA FE,4.612081,-74.073743,Paradas SITP,#FDF202
1138,Br. Acacias Usaquén,USAQUEN,4.726692,-74.041014,Paradas SITP,#FDF202
1140,Calle 63,TEUSAQUILLO,4.652113,-74.078693,Paradas SITP,#FDF202
1143,Pl. Fundacional  Fontibón,FONTIBON,4.673691,-74.143474,Paradas SITP,#FDF202
1144,Calle 40 Sur,KENNEDY,4.601937,-74.143508,Paradas SITP,#FDF202
1145,Br. Sierra Morena  Tv  73J,CIUDAD BOLIVAR,4.57923,-74.16997,Paradas SITP,#FDF202
1146,Br. La Fraguita,ANTONIO NARIÑO,4.594821,-74.10076,Paradas SITP,#FDF202
1147,Br. Las Nieves,SANTA FE,4.608127,-74.067189,Paradas SITP,#FDF202
1148,Cantón Norte,CHAPINERO,4.683416,-74.036267,Paradas SITP,#FDF202
1149,Br. Altos de Chozica,SUBA,4.734107,-74.08566,Paradas SITP,#FDF202
1151,Br. Tabora,ENGATIVA,4.693143,-74.102327,Paradas SITP,#FDF202
1154,Instituto Geográfico Agustín Codazzi IGAC,TEUSAQUILLO,4.638439,-74.079543,Paradas SITP,#FDF202
1155,La Cabaña,FONTIBON,4.678086,-74.13953,Paradas SITP,#FDF202
1156,Br. Liliana,USME,4.506707,-74.088728,Paradas SITP,#FDF202
1158,Colegio Salesiano León XIII,CANDELARIA,4.594985,-74.074765,Paradas SITP,#FDF202
1159,Calle 146,USAQUEN,4.723512,-74.032197,Paradas SITP,#FDF202
1160,Urbanización Granada,SUBA,4.72452,-74.06747,Paradas SITP,#FDF202
1163,Rubén Vallejo,FONTIBON,4.681245,-74.134502,Paradas SITP,#FDF202
1164,Br. Alquería La Fragua Cl 34 S,KENNEDY,4.605394,-74.131551,Paradas SITP,#FDF202
1167,Salón Comunal San Juan Bautista,USME,4.516131,-74.11918,Paradas SITP,#FDF202
1170,Urb. Compartir,USME,4.506668,-74.088632,Paradas SITP,#FDF202
1172,Biblioteca Luis Angel Arango,CANDELARIA,4.597259,-74.073442,Paradas SITP,#FDF202
1173,Pq. Cedro Madeira,USAQUEN,4.727102,-74.032101,Paradas SITP,#FDF202
1175,Br. Colina Campestre I Sector,SUBA,4.723452,-74.064721,Paradas SITP,#FDF202
1176,AC 26,ENGATIVA,4.655365,-74.102315,Paradas SITP,#FDF202
1179,Br. Veracruz Sector II,FONTIBON,4.687176,-74.129763,Paradas SITP,#FDF202
1182,Br. Pensilvania,PUENTE ARANDA,4.608768,-74.100271,Paradas SITP,#FDF202
1186,Br. Ismael Perdomo,CIUDAD BOLIVAR,4.582272,-74.169506,Paradas SITP,#FDF202
1189,Br. Doña Liliana,USME,4.510991,-74.092086,Paradas SITP,#FDF202
1191,AV. CL 26,ENGATIVA,4.655911,-74.101803,Paradas SITP,#FDF202
1192,AK 15,CHAPINERO,4.679147,-74.049721,Paradas SITP,#FDF202
1193,Calle 142,USAQUEN,4.724606,-74.046225,Paradas SITP,#FDF202
1194,Urb. Colina Norte II,SUBA,4.723674,-74.064774,Paradas SITP,#FDF202
1195,Br. Compartir Suba,SUBA,4.755827,-74.103672,Paradas SITP,#FDF202
1196,Br. Salitre Greco,TEUSAQUILLO,4.656562,-74.100823,Paradas SITP,#FDF202
1197,Br. Ciudad Kennedy Oriental,KENNEDY,4.619637,-74.141968,Paradas SITP,#FDF202
1198,CL 58 Sur,BOSA,4.619043,-74.184467,Paradas SITP,#FDF202
1203,IED Ciudad de Bogotá Sede B,TUNJUELITO,4.577354,-74.140822,Paradas SITP,#FDF202
1204,Br. Salitre - El Greco,TEUSAQUILLO,4.656207,-74.101071,Paradas SITP,#FDF202
1205,Salitre Greco,TEUSAQUILLO,4.655943,-74.101302,Paradas SITP,#FDF202
1206,C.C. Las Rampas,BARRIOS UNIDOS,4.658608,-74.069805,Paradas SITP,#FDF202
1209,Calle 150,USAQUEN,4.732175,-74.04495,Paradas SITP,#FDF202
1210,Br. Prado Veraniego Norte - La Hacienda,SUBA,4.722569,-74.062658,Paradas SITP,#FDF202
1211,CAI Las Ferias,ENGATIVA,4.68208,-74.089695,Paradas SITP,#FDF202
1212,Compensar,ENGATIVA,4.659522,-74.099038,Paradas SITP,#FDF202
1213,IED Kennedy,KENNEDY,4.620136,-74.141941,Paradas SITP,#FDF202
1215,Pq la Aurora,USME,4.520008,-74.121156,Paradas SITP,#FDF202
1216,Br. Juan XXIII,BARRIOS UNIDOS,4.667838,-74.063871,Paradas SITP,#FDF202
1220,Br. La Sultana,SUBA,4.720215,-74.059109,Paradas SITP,#FDF202
1221,Urbanización Camino Verde,SUBA,4.757291,-74.101702,Paradas SITP,#FDF202
1223,Br. Las Ferias,ENGATIVA,4.680344,-74.08811,Paradas SITP,#FDF202
1224,Pq. Metropolitano Simón Bolívar,TEUSAQUILLO,4.661761,-74.096782,Paradas SITP,#FDF202
1225,Br. Los Ejidos,PUENTE ARANDA,4.617676,-74.105524,Paradas SITP,#FDF202
1226,CADE Ciudad Bolívar,CIUDAD BOLIVAR,4.570724,-74.14879,Paradas SITP,#FDF202
1227,Br. La Flora,USME,4.512117,-74.092259,Paradas SITP,#FDF202
1228,Br. La Soledad,TEUSAQUILLO,4.624366,-74.074281,Paradas SITP,#FDF202
1229,C.C. Unicentro,USAQUEN,4.703164,-74.042692,Paradas SITP,#FDF202
1235,Urbanización Los Almendros Norte,SUBA,4.75685,-74.099816,Paradas SITP,#FDF202
1236, San Fernando Occidental,BARRIOS UNIDOS,4.674051,-74.081433,Paradas SITP,#FDF202
1237,Coliseo El Salitre,ENGATIVA,4.662865,-74.096369,Paradas SITP,#FDF202
1238,Br. La Primavera,BOSA,4.606752,-74.208658,Paradas SITP,#FDF202
1240,Industrial Centenario,PUENTE ARANDA,4.624855,-74.09401,Paradas SITP,#FDF202
1241,Br. Teusaquillo Cl 32A,TEUSAQUILLO,4.621845,-74.074741,Paradas SITP,#FDF202
1242,Br. Prado Pinzón,SUBA,4.724554,-74.054454,Paradas SITP,#FDF202
1243,Br. Los Almendros Norte,SUBA,4.756483,-74.100926,Paradas SITP,#FDF202
1244,Colegio Cooperativo Unión Social,BARRIOS UNIDOS,4.674238,-74.083566,Paradas SITP,#FDF202
1245,Colegio Cafam,ENGATIVA,4.668652,-74.091909,Paradas SITP,#FDF202
1246,Distrito Militar,KENNEDY,4.627134,-74.149543,Paradas SITP,#FDF202
1247,Urb. La Esperanza,BOSA,4.607088,-74.208554,Paradas SITP,#FDF202
1250,Br. Perdomo Alto,CIUDAD BOLIVAR,4.583704,-74.169609,Paradas SITP,#FDF202
1251,Estación Eléctrica el Tunal,TUNJUELITO,4.573588,-74.139933,Paradas SITP,#FDF202
1253, Teusaquillo,TEUSAQUILLO,4.620697,-74.074293,Paradas SITP,#FDF202
1255,Agrupación Fuerte Ventura,SUBA,4.724398,-74.054568,Paradas SITP,#FDF202
1256,Avenida La Esmeralda,BARRIOS UNIDOS,4.670969,-74.081356,Paradas SITP,#FDF202
1258,Pq. El Salitre,BARRIOS UNIDOS,4.669026,-74.091179,Paradas SITP,#FDF202
1259,Br. Centro Nariño Kr 39,TEUSAQUILLO,4.63223,-74.089834,Paradas SITP,#FDF202
1260,Br. Estación Central,PUENTE ARANDA,4.62215,-74.092475,Paradas SITP,#FDF202
1261,Br. Santa Martha,USME,4.526703,-74.117138,Paradas SITP,#FDF202
1262,Autopista Norte,USAQUEN,4.686592,-74.05487,Paradas SITP,#FDF202
1263,Urb. El Moral,SUBA,4.72587,-74.05817,Paradas SITP,#FDF202
1267,Br. Santa Cecilia I,SUBA,4.740234,-74.129458,Paradas SITP,#FDF202
1268,Pq. Aquapark,BARRIOS UNIDOS,4.672155,-74.088873,Paradas SITP,#FDF202
1270,Biblioteca el Tintal,KENNEDY,4.642662,-74.154259,Paradas SITP,#FDF202
1272,Br. Ciudad Kennedy,KENNEDY,4.62312,-74.145223,Paradas SITP,#FDF202
1273,C.C. Ciudad Tunal,TUNJUELITO,4.577094,-74.130136,Paradas SITP,#FDF202
1274,Br. La Castellana,BARRIOS UNIDOS,4.677949,-74.061017,Paradas SITP,#FDF202
1278,Instituto Carlos Ardila Lülle,USAQUEN,4.696617,-74.031712,Paradas SITP,#FDF202
1279,Br. Castañuela II,SUBA,4.725673,-74.058091,Paradas SITP,#FDF202
1285,Br. Santa Rosita,ENGATIVA,4.700289,-74.112013,Paradas SITP,#FDF202
1286,Cruz Roja,ENGATIVA,4.672278,-74.089234,Paradas SITP,#FDF202
1289,Br. Gran América,TEUSAQUILLO,4.629527,-74.083589,Paradas SITP,#FDF202
1291,Br. El Paraíso,CIUDAD BOLIVAR,4.549281,-74.162962,Paradas SITP,#FDF202
1293,Ciudadela Nuevo Milenio,USME,4.534559,-74.118005,Paradas SITP,#FDF202
1294,Puente de la 92,CHAPINERO,4.678342,-74.058943,Paradas SITP,#FDF202
1295,Fundación Cardio Infantil,USAQUEN,4.740059,-74.032058,Paradas SITP,#FDF202
1297,Círculo de Suboficiales de las FF.MM.,SUBA,4.726906,-74.061052,Paradas SITP,#FDF202
1302,Br. El Cedro,ENGATIVA,4.702399,-74.114711,Paradas SITP,#FDF202
1303,Atahualpa,FONTIBON,4.673725,-74.145082,Paradas SITP,#FDF202
1304,Br. Valladolid,KENNEDY,4.647581,-74.148454,Paradas SITP,#FDF202
1305,Br. Ciudad Kennedy Central,KENNEDY,4.622262,-74.151515,Paradas SITP,#FDF202
1307,Bosa San José,BOSA,4.614356,-74.213215,Paradas SITP,#FDF202
1309,CAI Paraíso,CIUDAD BOLIVAR,4.549158,-74.163251,Paradas SITP,#FDF202
1310,Br. Danubio Azul,USME,4.541979,-74.118927,Paradas SITP,#FDF202
1311,Br. San Diego,BOSA,4.614341,-74.214105,Paradas SITP,#FDF202
1313,J.J. Vargas,BARRIOS UNIDOS,4.675835,-74.086733,Paradas SITP,#FDF202
1319,Estación Av. El Dorado,TEUSAQUILLO,4.631551,-74.079551,Paradas SITP,#FDF202
1321,Parque Comercial La Colina 138,SUBA,4.726469,-74.06035,Paradas SITP,#FDF202
1323,Cl 132,SUBA,4.741976,-74.124427,Paradas SITP,#FDF202
1324,Br. Álamos Norte,ENGATIVA,4.705723,-74.118617,Paradas SITP,#FDF202
1326,Br. Bellavista Occidental,ENGATIVA,4.675582,-74.087286,Paradas SITP,#FDF202
1327,Humedal El Burro,KENNEDY,4.647131,-74.149317,Paradas SITP,#FDF202
1328,IED Próspero Pinzón,KENNEDY,4.623273,-74.152401,Paradas SITP,#FDF202
1329,Br. Bella Flor,CIUDAD BOLIVAR,4.547169,-74.161063,Paradas SITP,#FDF202
1330,Humedal El Burro,KENNEDY,4.647312,-74.149102,Paradas SITP,#FDF202
1331,Bellavista Occidental,ENGATIVA,4.676534,-74.086786,Paradas SITP,#FDF202
1335,Urb. Santa Helena,SUBA,4.727945,-74.063749,Paradas SITP,#FDF202
1338,Pq. Público Plazuelas del Virrey,ENGATIVA,4.707973,-74.121325,Paradas SITP,#FDF202
1339,Avenida Calle 68 (Avenida Calle 72),ENGATIVA,4.686946,-74.094955,Paradas SITP,#FDF202
1340,AC 17,PUENTE ARANDA,4.639327,-74.115954,Paradas SITP,#FDF202
1341,Uniagustiniana,KENNEDY,4.651969,-74.143979,Paradas SITP,#FDF202
1342,Ciudad Kennedy Occidental,KENNEDY,4.622847,-74.158136,Paradas SITP,#FDF202
1345,Br. El Jardín,BOSA,4.613453,-74.211174,Paradas SITP,#FDF202
1348,Pq San Cayetano,USME,4.517599,-74.090518,Paradas SITP,#FDF202
1349,Avenida Calle 17,KENNEDY,4.639086,-74.116195,Paradas SITP,#FDF202
1350,Br. Pradera Norte,USAQUEN,4.743688,-74.031962,Paradas SITP,#FDF202
1355,C.C. Portoalegre,SUBA,4.728314,-74.064921,Paradas SITP,#FDF202
1356,Hospital Suba CAP Lisboa,SUBA,4.743481,-74.121948,Paradas SITP,#FDF202
1357,CED. AV. Chile,BARRIOS UNIDOS,4.673873,-74.081508,Paradas SITP,#FDF202
1358,Br. Lujan,ENGATIVA,4.678719,-74.10146,Paradas SITP,#FDF202
1361,Br. El Tintal Urbano,KENNEDY,4.649796,-74.146585,Paradas SITP,#FDF202
1362,IED Pablo VI,KENNEDY,4.621908,-74.158801,Paradas SITP,#FDF202
1364,Br. Nueva Esperanza,CIUDAD BOLIVAR,4.548457,-74.161021,Paradas SITP,#FDF202
1365,Br. Los Molinos del Sur,RAFAEL URIBE URIBE,4.555337,-74.120401,Paradas SITP,#FDF202
1366,Colegio Hijas de Cristo Rey,SUBA,4.728969,-74.066301,Paradas SITP,#FDF202
1367,Br. San Fernando Occidental,BARRIOS UNIDOS,4.675949,-74.084719,Paradas SITP,#FDF202
1368,Br. San Joaquín,ENGATIVA,4.678125,-74.101367,Paradas SITP,#FDF202
1372,Br. Ciudad Salitre Suroriental,TEUSAQUILLO,4.647158,-74.108112,Paradas SITP,#FDF202
1374,Ciudad Hayuelos,FONTIBON,4.66166,-74.134044,Paradas SITP,#FDF202
1375,Br. El Mirador,CIUDAD BOLIVAR,4.548537,-74.161006,Paradas SITP,#FDF202
1376,La Picota,RAFAEL URIBE URIBE,4.552748,-74.118999,Paradas SITP,#FDF202
1377,Ciudad Salitre Suroriental,PUENTE ARANDA,4.645947,-74.109386,Paradas SITP,#FDF202
1380,Br. El Chicó,CHAPINERO,4.673774,-74.051913,Paradas SITP,#FDF202
1383,Urb. El Refugio de la Colina,SUBA,4.729937,-74.069526,Paradas SITP,#FDF202
1388,Parque Público San Fernando,BARRIOS UNIDOS,4.671471,-74.0784,Paradas SITP,#FDF202
1390,Zona Ind. Sredni,KENNEDY,4.646001,-74.109785,Paradas SITP,#FDF202
1392,Br. Ciudad Kennedy Occidental,KENNEDY,4.620336,-74.160743,Paradas SITP,#FDF202
1393,IED Paraíso Mirador,CIUDAD BOLIVAR,4.549316,-74.160319,Paradas SITP,#FDF202
1394,Br. Molinos Del Sur,RAFAEL URIBE URIBE,4.552479,-74.118383,Paradas SITP,#FDF202
1395,Cl 77A S,SAN CRISTOBAL,4.512569,-74.088483,Paradas SITP,#FDF202
1396,Zona Industrial Sredni,KENNEDY,4.646179,-74.109603,Paradas SITP,#FDF202
1397,Br. Verbenal San Antonio,USAQUEN,4.760348,-74.032066,Paradas SITP,#FDF202
1398,Br. Tibabuyes,SUBA,4.744235,-74.119826,Paradas SITP,#FDF202
1402,Uniminuto,ENGATIVA,4.711639,-74.096433,Paradas SITP,#FDF202
1404,CAI Normandía,ENGATIVA,4.670585,-74.107295,Paradas SITP,#FDF202
1405,Iglesia Santa Ángela Merici,ENGATIVA,4.725566,-74.122172,Paradas SITP,#FDF202
1406,Banco de la Republica Central de Efectivo,TEUSAQUILLO,4.651777,-74.104594,Paradas SITP,#FDF202
1407,Calle 47F Sur,KENNEDY,4.61866,-74.163558,Paradas SITP,#FDF202
1409,C.C. Caracas,RAFAEL URIBE URIBE,4.557516,-74.121417,Paradas SITP,#FDF202
1410,Banco de la República Central de Efectivo,TEUSAQUILLO,4.651558,-74.104744,Paradas SITP,#FDF202
1411,Br. Zulima,USAQUEN,4.760477,-74.027619,Paradas SITP,#FDF202
1413,Pq. Rafael Nuñez,TEUSAQUILLO,4.643459,-74.088573,Paradas SITP,#FDF202
1414,Bco. de la República Central de Efectivo,FONTIBON,4.65157,-74.105203,Paradas SITP,#FDF202
1415,Br. Miraflores Kennedy,KENNEDY,4.616647,-74.166765,Paradas SITP,#FDF202
1417,Cl 75B S,SAN CRISTOBAL,4.515703,-74.089113,Paradas SITP,#FDF202
1421,Br. Torre de las Américas,LOS MARTIRES,4.624144,-74.081055,Paradas SITP,#FDF202
1423,Plaza de la Democracia,TEUSAQUILLO,4.624208,-74.079973,Paradas SITP,#FDF202
1424,Urb. Iberia Triangulo II,SUBA,4.720604,-74.067852,Paradas SITP,#FDF202
1425,Br. La Fontana,SUBA,4.752778,-74.103369,Paradas SITP,#FDF202
1426,Urb. Quintas de Santa Bárbara,ENGATIVA,4.726289,-74.120534,Paradas SITP,#FDF202
1427,C.C. Los Tres Elefantes,FONTIBON,4.658945,-74.118416,Paradas SITP,#FDF202
1428,C.C. Tintal Plaza,KENNEDY,4.643155,-74.156786,Paradas SITP,#FDF202
1430,Br. El Paraíso Casablanca,KENNEDY,4.616695,-74.166881,Paradas SITP,#FDF202
1432,Br. Cordillera del Sur,CIUDAD BOLIVAR,4.539061,-74.155734,Paradas SITP,#FDF202
1433,Br. El Pensil,RAFAEL URIBE URIBE,4.557222,-74.12068,Paradas SITP,#FDF202
1435,Estación Centro Memoria,TEUSAQUILLO,4.620199,-74.075187,Paradas SITP,#FDF202
1436,Br. Bosque de Los Urapanes,SUBA,4.730175,-74.063834,Paradas SITP,#FDF202
1438,Urb. La Fontana,SUBA,4.752302,-74.103538,Paradas SITP,#FDF202
1440,Quintas de Santa Bárbara,ENGATIVA,4.728051,-74.117689,Paradas SITP,#FDF202
1441,Br. Rafael Nuñez,TEUSAQUILLO,4.644698,-74.08721,Paradas SITP,#FDF202
1443,Br. Esperanza Sur,FONTIBON,4.659294,-74.117559,Paradas SITP,#FDF202
1444,Br. Parque Residencial Castilla Real,KENNEDY,4.64421,-74.142351,Paradas SITP,#FDF202
1446,Br. Casablanca I,KENNEDY,4.614132,-74.1704,Paradas SITP,#FDF202
1447,Br. San Bernardino I,BOSA,4.607512,-74.203772,Paradas SITP,#FDF202
1448,Pq. Público Avenida Caracas,RAFAEL URIBE URIBE,4.55892,-74.121521,Paradas SITP,#FDF202
1449,Br. Yomasa,SAN CRISTOBAL,4.519413,-74.091139,Paradas SITP,#FDF202
1451, Armenia,TEUSAQUILLO,4.620455,-74.073478,Paradas SITP,#FDF202
1452,Pq. República de Francia,USAQUEN,4.691162,-74.047117,Paradas SITP,#FDF202
1453,Br. El Rincón de Iberia,SUBA,4.726275,-74.065345,Paradas SITP,#FDF202
1454,Br. Rincón de Santa Inés,SUBA,4.755094,-74.101905,Paradas SITP,#FDF202
1455,Ciudadela Colsubsidio IV Sector,ENGATIVA,4.727759,-74.11603,Paradas SITP,#FDF202
1460,Br. Rafael Núñez,TEUSAQUILLO,4.645539,-74.084595,Paradas SITP,#FDF202
1461,Br. Castilla Real,KENNEDY,4.642485,-74.141073,Paradas SITP,#FDF202
1462,Br. Los Alpes Sur,CIUDAD BOLIVAR,4.541706,-74.155715,Paradas SITP,#FDF202
1463,Br. Marco Fidel Suárez I,RAFAEL URIBE URIBE,4.567938,-74.119264,Paradas SITP,#FDF202
1464,Br. Juan Rey,SAN CRISTOBAL,4.51942,-74.091039,Paradas SITP,#FDF202
1465,Parque Las Flores,SUBA,4.754668,-74.102057,Paradas SITP,#FDF202
1466,C.C. Montevideo Plaza,FONTIBON,4.654177,-74.121839,Paradas SITP,#FDF202
1467,Praderas de Fontibón,FONTIBON,4.680646,-74.168237,Paradas SITP,#FDF202
1469,C.C. Plaza de las Américas,KENNEDY,4.617662,-74.136466,Paradas SITP,#FDF202
1470,Br. Manzanares,BOSA,4.608665,-74.201796,Paradas SITP,#FDF202
1472,Br. San Jorge Sur,RAFAEL URIBE URIBE,4.571229,-74.123484,Paradas SITP,#FDF202
1473,Br. Los Pinos,SAN CRISTOBAL,4.526031,-74.092076,Paradas SITP,#FDF202
1474,Br. La Alhambra,SUBA,4.699948,-74.058525,Paradas SITP,#FDF202
1475,Br. Villa Cindy,SUBA,4.742903,-74.129201,Paradas SITP,#FDF202
1476,ICONTEC,TEUSAQUILLO,4.643751,-74.082539,Paradas SITP,#FDF202
1477,Dg 73H,BOSA,4.608529,-74.201379,Paradas SITP,#FDF202
1478,Instituto Ramón Briceño,RAFAEL URIBE URIBE,4.568557,-74.122082,Paradas SITP,#FDF202
1480,Br. Valparaíso,SAN CRISTOBAL,4.52608,-74.091963,Paradas SITP,#FDF202
1481,Pq. Córdoba,SUBA,4.708286,-74.063287,Paradas SITP,#FDF202
1482,C.C. Ciprés Plaza,TEUSAQUILLO,4.636089,-74.10033,Paradas SITP,#FDF202
1483,Parque El Tintal,KENNEDY,4.648917,-74.158772,Paradas SITP,#FDF202
1485,Kr 79C,BOSA,4.608431,-74.201788,Paradas SITP,#FDF202
1488, Marco Fidel Suárez,RAFAEL URIBE URIBE,4.57019,-74.123502,Paradas SITP,#FDF202
1489,Comando Reclutamiento FF.MM.,USAQUEN,4.686744,-74.038976,Paradas SITP,#FDF202
1490, Santa Rita de Suba,SUBA,4.744327,-74.128404,Paradas SITP,#FDF202
1492,EAAB,TEUSAQUILLO,4.628687,-74.091575,Paradas SITP,#FDF202
1493,Br. Tintalá,KENNEDY,4.648982,-74.158909,Paradas SITP,#FDF202
1496,Urb. Las Américas I Sector,KENNEDY,4.626241,-74.136712,Paradas SITP,#FDF202
1497,Br. Nuevo Muzú I Sector,TUNJUELITO,4.590501,-74.142687,Paradas SITP,#FDF202
1498,Br. San Martín,SANTA FE,4.618948,-74.069215,Paradas SITP,#FDF202
1499,Unidad Deportiva El Salitre,ENGATIVA,4.667253,-74.095632,Paradas SITP,#FDF202
1500,NUEVO SOL,KENNEDY,4.638631,-74.152438,Paradas SITP,#FDF202
1501,Unidad Educativa Jean Piaget,KENNEDY,4.625023,-74.130857,Paradas SITP,#FDF202
1502,Br. Gran Colombiano,BOSA,4.608788,-74.201529,Paradas SITP,#FDF202
1504,Pquia. Nuestra señora de la Reconciliación,ENGATIVA,4.721419,-74.115364,Paradas SITP,#FDF202
1505,Instituto Técnico Industrial (ITI) Francisco José de Caldas,ENGATIVA,4.667364,-74.09536,Paradas SITP,#FDF202
1506,TINTALA I,KENNEDY,4.645065,-74.157394,Paradas SITP,#FDF202
1508,Br. Brisas Del Volador,CIUDAD BOLIVAR,4.545768,-74.15598,Paradas SITP,#FDF202
1509,Br. La Soledad Cl 39A,TEUSAQUILLO,4.628603,-74.072863,Paradas SITP,#FDF202
1514,Pq. Canal Molinos,SUBA,4.701448,-74.065754,Paradas SITP,#FDF202
1515,Br. Santa Rita de Suba,SUBA,4.743547,-74.127032,Paradas SITP,#FDF202
1516,Mundo Aventura,KENNEDY,4.62558,-74.136284,Paradas SITP,#FDF202
1517,CED Juan Rey,SAN CRISTOBAL,4.521624,-74.088882,Paradas SITP,#FDF202
1518,Canal Arzobispo,TEUSAQUILLO,4.630632,-74.072358,Paradas SITP,#FDF202
1520,Pq. Las Margaritas II,USAQUEN,4.731822,-74.048064,Paradas SITP,#FDF202
1521,CAI Alhambra,SUBA,4.701463,-74.066616,Paradas SITP,#FDF202
1523,C.C. Salitre Plaza,FONTIBON,4.653489,-74.109214,Paradas SITP,#FDF202
1524,Urbanización El Claret,TUNJUELITO,4.581507,-74.133866,Paradas SITP,#FDF202
1525,Br. Ciudad Londres I,SAN CRISTOBAL,4.521449,-74.088927,Paradas SITP,#FDF202
1529,Br. Santa Teresita Cl 43,TEUSAQUILLO,4.632067,-74.072226,Paradas SITP,#FDF202
1530,Carrera 51A,SUBA,4.707544,-74.060151,Paradas SITP,#FDF202
1532,Museo de los Niños,TEUSAQUILLO,4.660623,-74.089577,Paradas SITP,#FDF202
1533,Central Telefónica Holanda,BOSA,4.629382,-74.18392,Paradas SITP,#FDF202
1534,Br. San Diego Bosa,BOSA,4.611976,-74.206717,Paradas SITP,#FDF202
1535,Parroquia La Sagrada Familia,TUNJUELITO,4.581236,-74.135242,Paradas SITP,#FDF202
1537,C.C. Panamá,USAQUEN,4.756445,-74.04523,Paradas SITP,#FDF202
1538, San Pedro,SUBA,4.746163,-74.121433,Paradas SITP,#FDF202
1539,Portal de Castilla,KENNEDY,4.64425,-74.155727,Paradas SITP,#FDF202
1542,Br. Villa Esmeralda,BOSA,4.637294,-74.189262,Paradas SITP,#FDF202
1543,Br. Claret El Carmen,TUNJUELITO,4.58281,-74.135151,Paradas SITP,#FDF202
1544,IED Brisas Del Volador,CIUDAD BOLIVAR,4.547979,-74.154801,Paradas SITP,#FDF202
1546,CED la Chiguaza,USME,4.524238,-74.087486,Paradas SITP,#FDF202
1547,Estación Calle 187,USAQUEN,4.764239,-74.043842,Paradas SITP,#FDF202
1548,Bibl. Virgilio Barco,TEUSAQUILLO,4.657159,-74.089401,Paradas SITP,#FDF202
1549,Br. Modelia Occidental,FONTIBON,4.667911,-74.121659,Paradas SITP,#FDF202
1551,IED Cafam La Esperanza,BOSA,4.609566,-74.205915,Paradas SITP,#FDF202
1553,El Rancho y El Ranchito,USME,4.489213,-74.114716,Paradas SITP,#FDF202
1557,Cl 64A S,USME,4.5245,-74.087427,Paradas SITP,#FDF202
1558,Br. Villas del Diamante,CIUDAD BOLIVAR,4.548396,-74.154878,Paradas SITP,#FDF202
1559,Br. La Magdalena,TEUSAQUILLO,4.627032,-74.07274,Paradas SITP,#FDF202
1560,Br. San Antonio Noroccidental,USAQUEN,4.760144,-74.039256,Paradas SITP,#FDF202
1561,Centro Médico Modelia,FONTIBON,4.668548,-74.121962,Paradas SITP,#FDF202
1562,Br. El Porvenir III Sector,BOSA,4.632816,-74.184886,Paradas SITP,#FDF202
1564,Jardín Social La Esperanza,BOSA,4.610053,-74.205156,Paradas SITP,#FDF202
1565,Br. Los Andes Sector V Nutibara,CIUDAD BOLIVAR,4.54615,-74.153682,Paradas SITP,#FDF202
1566,CAI Antonio José de Sucre,USME,4.490348,-74.114894,Paradas SITP,#FDF202
1572,Los Libertadores Sector La Colina,SAN CRISTOBAL,4.532941,-74.089482,Paradas SITP,#FDF202
1573,Br. Villas del progreso,CIUDAD BOLIVAR,4.546955,-74.154152,Paradas SITP,#FDF202
1574,Urbanización Terraza de San Antonio,USAQUEN,4.760344,-74.038072,Paradas SITP,#FDF202
1575,Parque Simón Bolívar,TEUSAQUILLO,4.653998,-74.090802,Paradas SITP,#FDF202
1576,Br. Bosque de Modelia,FONTIBON,4.670546,-74.123762,Paradas SITP,#FDF202
1577,Biblioteca Pública El Tintal,KENNEDY,4.643893,-74.153817,Paradas SITP,#FDF202
1579,Pq. la Esperanza,BOSA,4.609945,-74.203923,Paradas SITP,#FDF202
1580,Salón Comunal Usminia,USME,4.493004,-74.116055,Paradas SITP,#FDF202
1582,Br. El Verbenal III Sector,USAQUEN,4.761115,-74.037516,Paradas SITP,#FDF202
1583,IED Alemania Solidaria Sede C,BARRIOS UNIDOS,4.660272,-74.075051,Paradas SITP,#FDF202
1584,Br. el Verbenal,USAQUEN,4.760389,-74.041988,Paradas SITP,#FDF202
1588,Carrera 57,SUBA,4.710619,-74.068061,Paradas SITP,#FDF202
1589, Berlín,SUBA,4.747318,-74.118151,Paradas SITP,#FDF202
1590,Br. Bolivia Oriental,ENGATIVA,4.717941,-74.112406,Paradas SITP,#FDF202
1591,Prados de Castilla,KENNEDY,4.646809,-74.157171,Paradas SITP,#FDF202
1594,INEM Francisco de Paula Santander,KENNEDY,4.624148,-74.156958,Paradas SITP,#FDF202
1595,IED Rafael Uribe Uribe,TUNJUELITO,4.582923,-74.132515,Paradas SITP,#FDF202
1596,Br. Nueva Delhi,SAN CRISTOBAL,4.529857,-74.086741,Paradas SITP,#FDF202
1597,Colegio Marillac,BARRIOS UNIDOS,4.659059,-74.073294,Paradas SITP,#FDF202
1599,Br. Hacienda Córdoba Niza VIII,SUBA,4.711016,-74.068211,Paradas SITP,#FDF202
1600,Conjunto Residencial Santafé del Tintal,KENNEDY,4.64964,-74.1575,Paradas SITP,#FDF202
1602, Br. Grancolombiano I,BOSA,4.610382,-74.202536,Paradas SITP,#FDF202
1603,Br. Chiguaza,SAN CRISTOBAL,4.528669,-74.086059,Paradas SITP,#FDF202
1604,Almacenes Tía,BARRIOS UNIDOS,4.657517,-74.071053,Paradas SITP,#FDF202
1605,Br. Santa Teresa,USAQUEN,4.747236,-74.024679,Paradas SITP,#FDF202
1608,Br. El Madrigal,ENGATIVA,4.709381,-74.112003,Paradas SITP,#FDF202
1610,Centro de Alto Rendimiento,BARRIOS UNIDOS,4.65824,-74.087659,Paradas SITP,#FDF202
1611,Iglesia San José de Fontibón,FONTIBON,4.680814,-74.133576,Paradas SITP,#FDF202
1612,Parque Mundo Aventura,KENNEDY,4.622186,-74.137173,Paradas SITP,#FDF202
1614,Nueva Colombia,CIUDAD BOLIVAR,4.548207,-74.151037,Paradas SITP,#FDF202
1615,Nuevo San Luis,USME,4.489047,-74.114835,Paradas SITP,#FDF202
1617,Carrera 17,BARRIOS UNIDOS,4.654704,-74.067201,Paradas SITP,#FDF202
1619,Br. Villas III Sector,SUBA,4.715562,-74.069824,Paradas SITP,#FDF202
1620,Br. Bochica,ENGATIVA,4.710216,-74.105359,Paradas SITP,#FDF202
1622,C.R. San Pedro de Castilla,KENNEDY,4.648422,-74.155672,Paradas SITP,#FDF202
1623,Br. Antonio José de Sucre,USME,4.492407,-74.114343,Paradas SITP,#FDF202
1626,Avenida Caracas,BARRIOS UNIDOS,4.653794,-74.065434,Paradas SITP,#FDF202
1628,Estación Cl 142,USAQUEN,4.727093,-74.04969,Paradas SITP,#FDF202
1632,Centro Industrial La Rabida,FONTIBON,4.675778,-74.122552,Paradas SITP,#FDF202
1633,C.R. San Lorenzo de Castilla,KENNEDY,4.648219,-74.155727,Paradas SITP,#FDF202
1635,Br. El Claret,TUNJUELITO,4.580852,-74.131208,Paradas SITP,#FDF202
1636,Villa Gloria Las Manitas,CIUDAD BOLIVAR,4.550149,-74.150834,Paradas SITP,#FDF202
1637,Br. La Sabana,LOS MARTIRES,4.609639,-74.088447,Paradas SITP,#FDF202
1638,Clínica Monserrat,USAQUEN,4.717267,-74.046542,Paradas SITP,#FDF202
1640,Palacio de los Deportes,TEUSAQUILLO,4.654269,-74.085083,Paradas SITP,#FDF202
1641,Av. Ferrocarril,FONTIBON,4.666924,-74.129852,Paradas SITP,#FDF202
1642,Br. Provivienda Norte,PUENTE ARANDA,4.611308,-74.128221,Paradas SITP,#FDF202
1644,Las Manitas,CIUDAD BOLIVAR,4.550342,-74.150851,Paradas SITP,#FDF202
1645,Los Libertadores Sector San Ignacio,SAN CRISTOBAL,4.532684,-74.087959,Paradas SITP,#FDF202
1646,IED Miguel Antonio Caro,ENGATIVA,4.708293,-74.104723,Paradas SITP,#FDF202
1647,Br. Progreso,LOS MARTIRES,4.602093,-74.09357,Paradas SITP,#FDF202
